name,id,lat,lon,number,min_rail,min_rail_distance,min_park,min_park_distance,min_pier,min_pier_distance,population_density
"River Street , Clerkenwell",1,51.52916347,-0.109970527,39.0,Kings Cross_diatance,989.794020790313,Lincoln's Inn Fields South_distance,1563.527946412427,Blackfriars Pier_diatance,2154.498742890281,13116.0
"Phillimore Gardens, Kensington",2,51.49960695,-0.197574246,73.0,Paddington_diatance,2414.7060831920335,Holland Park Duchess of Bedford_diatance,385.52269515924354,Cadogan Pier_diatance,2854.1826377239286,12893.0
"Christopher Street, Liverpool Street",3,51.52128377,-0.084605692,20.0,Liverpool Street_diatance,361.7490102260871,Lincoln's Inn Fields South_distance,2273.4419011980854,London Bridge City Pier_diatance,1596.3350457284998,6784.0
"St. Chad's Street, King's Cross",4,51.53005939,-0.120973687,31.0,Kings Cross_diatance,305.9934084086216,Lincoln's Inn Fields West_distance,1584.2949826144197,Embankment Pier_diatance,2566.722816955055,26642.0
"Broadcasting House, Marylebone",6,51.51811784,-0.144228881,24.0,Euston_diatance,1355.5936768738852,The Regent's Park St. Andrew's Gate_distance,813.3597797266998,Embankment Pier_diatance,2011.0229721890173,10022.0
"Charlbert Street, St. John's Wood",7,51.53430039,-0.1680743,93.0,Marylebone_diatance,1293.949480849201,The Regent's Park Monkey Gate_distance,645.7611604671087,Embankment Pier_diatance,4437.086146918411,5024.0
"Maida Vale, Maida Vale",8,51.529857,-0.18348604,158.0,Paddington_diatance,1489.8998344578647,The Regent's Park Hanover Gate_distance,1244.6429063602463,Embankment Pier_diatance,4996.4947956147835,21137.0
"New Globe Walk, Bankside",9,51.5073853,-0.096440751,39.0,Cannon Street_diatance,471.8787647343346,Geraldine Mary Harmsworth Park North_diatance,1413.3714022682539,Bankside Pier_diatance,156.03414651126658,9531.0
"Park Street, Bankside",10,51.50597426,-0.092754157,38.0,Cannon Street_diatance,471.2019147203891,Geraldine Mary Harmsworth Park East_diatance,1438.587972988625,Bankside Pier_diatance,418.33087792853865,9531.0
"Brunswick Square, Bloomsbury",11,51.52395143,-0.122502346,39.0,St Pancras_diatance,864.8283444817716,Lincoln's Inn Fields West_distance,945.17651461166,Embankment Pier_diatance,1889.14990217428,30478.0
"Malet Street, Bloomsbury",12,51.52168078,-0.130431727,46.0,Euston_diatance,829.6976002211627,Lincoln's Inn Fields West_distance,1073.8638261030956,Embankment Pier_diatance,1751.9037928129235,12381.0
"Scala Street, Fitzrovia",13,51.51991453,-0.136039674,12.0,Euston_diatance,982.6899517389589,The Regent's Park St. Andrew's Gate_distance,913.1243980570426,Embankment Pier_diatance,1762.004601117004,19918.0
"Belgrove Street , King's Cross",14,51.52994371,-0.123616824,48.0,St Pancras_diatance,236.0661679333551,The Regent's Park Chester Gate_distance,1564.7817908348495,Embankment Pier_diatance,2558.6075740635515,20725.0
"Great Russell Street, Bloomsbury",15,51.51772703,-0.127854211,30.0,Charing Cross_diatance,1183.8282359725304,Lincoln's Inn Fields West_distance,713.2488154928964,Embankment Pier_diatance,1277.5754482886814,5482.0
"Cartwright Gardens , Bloomsbury",16,51.52635795,-0.125979294,70.0,St Pancras_diatance,560.7125569111861,Lincoln's Inn Fields West_distance,1284.978737159744,Embankment Pier_diatance,2178.835079971291,17800.0
"Hatton Wall, Holborn",17,51.5216612,-0.109006325,36.0,Blackfriars_diatance,1193.4580669732206,Lincoln's Inn Fields South_distance,833.3431351409504,Blackfriars Pier_diatance,1348.5816505740722,17909.0
"Drury Lane, Covent Garden",18,51.51477076,-0.12221963,44.0,Charing Cross_diatance,810.7639554022369,Lincoln's Inn Fields West_distance,322.18367858475165,Embankment Pier_diatance,868.735513702168,14982.0
"Taviton Street, Bloomsbury",19,51.52505093,-0.131161087,35.0,Euston_diatance,466.89784080556717,The Regent's Park St. Andrew's Gate_distance,1021.9079327223591,Embankment Pier_diatance,2121.558861184737,17263.0
"Drummond Street , Euston",20,51.527326,-0.13605286,15.0,Euston_diatance,186.76755773092927,The Regent's Park Chester Gate_distance,685.1485053465832,Embankment Pier_diatance,2481.2451895302634,6943.0
"Lansdowne Drive, Hackney Central",21,51.539834,-0.062806212,3.0,Liverpool Street_diatance,2715.1596979748615,Victoria Park St Agnes Gate_diatance,884.0358939438674,Tower Millennium Pier_diatance,3787.8886261433227,17789.0
"Northington Street , Holborn",22,51.5222641,-0.114079481,35.0,Kings Cross_diatance,1295.043826998698,Lincoln's Inn Fields South_distance,750.3330743906026,Blackfriars Pier_diatance,1581.9915861775044,17644.0
"Red Lion Square, Holborn",23,51.51943538,-0.119123345,11.0,Charing Cross_diatance,1355.383156848656,Lincoln's Inn Fields West_distance,397.4339976906766,Festival Pier_diatance,1385.673331915145,5611.0
"British Museum, Bloomsbury",24,51.51908011,-0.124678402,30.0,Euston_diatance,1267.2571892702733,Lincoln's Inn Fields West_distance,581.877376998933,Embankment Pier_diatance,1365.4883031985185,5482.0
"Doric Way , Somers Town",25,51.5288338,-0.132250369,47.0,Euston_diatance,156.331767808405,The Regent's Park Chester Gate_distance,955.8094153277307,Embankment Pier_diatance,2544.947180615643,13495.0
"Ampton Street , Clerkenwell",26,51.52728093,-0.11829517,20.0,Kings Cross_diatance,666.2330701385591,Lincoln's Inn Fields West_distance,1261.7496105670257,Blackfriars Pier_diatance,2207.649878720073,33409.0
"Bouverie Street, Temple",27,51.51382102,-0.107927706,13.0,Blackfriars_diatance,421.0407551124322,Lincoln's Inn Fields South_distance,606.5256184445196,Blackfriars Pier_diatance,600.2567374279964,2733.0
"Bolsover Street, Fitzrovia",28,51.52351808,-0.143613641,49.0,Euston_diatance,854.123277284903,The Regent's Park St. Andrew's Gate_distance,259.4673364604071,Embankment Pier_diatance,2399.817403162647,26160.0
"Hereford Road, Bayswater",29,51.513735,-0.193487,74.0,Paddington_diatance,1207.2212867835976,Kensington Gardens Black Lion Gate_diatance,563.7902982039403,Cadogan Pier_diatance,3915.400927883325,24552.0
"Windsor Terrace, Hoxton",30,51.52915444,-0.093421615,38.0,Liverpool Street_diatance,1427.918881587613,Lincoln's Inn Fields South_distance,2176.605433720264,Blackfriars Pier_diatance,2125.679348323263,24596.0
"Fanshaw Street, Hoxton",31,51.52953709,-0.083353323,48.0,Liverpool Street_diatance,1231.3802787443303,Victoria Park St Agnes Gate_diatance,2347.958757429113,Blackfriars Pier_diatance,2430.2493312916913,17320.0
"Leonard Circus , Shoreditch",32,51.52469624,-0.084439283,43.0,Liverpool Street_diatance,711.0371178419833,Lincoln's Inn Fields South_distance,2416.2876036344123,Blackfriars Pier_diatance,1937.5696968529164,6784.0
"Pancras Road, King's Cross",34,51.5341235,-0.129386874,34.0,St Pancras_diatance,378.68477204540346,The Regent's Park Chester Gate_distance,1351.080234416491,Embankment Pier_diatance,3069.471913055084,6945.0
"De Vere Gardens, Kensington",36,51.50173726,-0.184980612,84.0,Paddington_diatance,1797.4660118617865,Kensington Gardens Palace Gate_diatance,50.77035966548242,Cadogan Pier_diatance,2465.4833857707526,14798.0
"Penywern Road, Earl's Court",37,51.49159394,-0.192369256,50.0,Paddington_diatance,3031.5154712528233,Holland Park Ilchester Gate_diatance,1252.5473121498117,Cadogan Pier_diatance,2046.947148269002,24684.0
"Abingdon Villas, Kensington",38,51.4973875,-0.197245586,47.0,Paddington_diatance,2605.2490735825986,Holland Park Ilchester Gate_diatance,540.5086712133353,Cadogan Pier_diatance,2681.254631739787,14743.0
"Shoreditch High Street, Shoreditch",39,51.5263778,-0.078130921,55.0,Liverpool Street_diatance,913.9618829139033,Victoria Park St Agnes Gate_diatance,2168.2006222905425,Tower Millennium Pier_diatance,2125.129710288254,13333.0
"Commercial Street, Shoreditch",40,51.52127071,-0.0755789,19.0,Liverpool Street_diatance,534.9778372958199,Victoria Park Bonner Gate_diatance,2307.038046881963,Tower Millennium Pier_diatance,1573.3773755030732,16990.0
"Pindar Street, Liverpool Street",41,51.520955,-0.083493552,7.0,Liverpool Street_diatance,294.40955956087015,Lincoln's Inn Fields South_distance,2338.014113815901,Tower Millennium Pier_diatance,1554.4715613537421,6784.0
"Wenlock Road , Hoxton",42,51.53099181,-0.093903825,46.0,Liverpool Street_diatance,1618.349575111841,Lincoln's Inn Fields South_distance,2299.799661174939,Blackfriars Pier_diatance,2317.0607035422336,24596.0
"Crawford Street, Marylebone",43,51.52026,-0.157183945,47.0,Marylebone_diatance,511.51750560802043,The Regent's Park Clarence Gate_distance,503.0894469266266,Embankment Pier_diatance,2887.044266071256,23675.0
"Bruton Street, Mayfair",44,51.51073687,-0.144165239,12.0,Charing Cross_diatance,1501.6268288955293,Green Park Devonshire Gates_diatance,567.1228676504869,Embankment Pier_diatance,1634.2913713122375,2938.0
"Boston Place, Marylebone",45,51.522511,-0.162298,26.0,Marylebone_diatance,81.53731496007148,The Regent's Park Clarence Gate_distance,375.194990998761,Embankment Pier_diatance,3319.2833970159186,20491.0
"Nesham Street, Wapping",46,51.507131,-0.06691,35.0,Fenchurch Street_diatance,920.1558792887917,Mile End Park Football Pitch_diatance,2559.575001087856,Tower Bridge Quay_diatance,475.0378807347613,7364.0
"Warwick Avenue Station, Maida Vale",47,51.52334476,-0.183846408,132.0,Paddington_diatance,844.4922828914714,The Regent's Park Hanover Gate_distance,1378.9834008693585,Cadogan Pier_diatance,4664.199929028245,13908.0
"Godliman Street, St. Paul's",48,51.51248445,-0.099141408,29.0,Blackfriars_diatance,284.5580283409501,Lincoln's Inn Fields South_distance,1230.8606317116992,Blackfriars Pier_diatance,241.98137362056056,1021.0
"Curzon Street, Mayfair",49,51.50706909,-0.145904427,36.0,Victoria_diatance,1166.6170550742238,Green Park Devonshire Gates_diatance,180.2832824758288,Westminster Pier_diatance,1683.2836361077177,4530.0
"East Road, Hoxton",50,51.52867339,-0.087459376,35.0,Liverpool Street_diatance,1194.8284518979117,Lincoln's Inn Fields South_distance,2459.569074023543,Blackfriars Pier_diatance,2213.703594208191,52750.0
"Finsbury Library , Finsbury",51,51.52671796,-0.104298194,31.0,Kings Cross_diatance,1458.4223663391492,Lincoln's Inn Fields South_distance,1480.7921787330915,Blackfriars Pier_diatance,1805.040953648601,30164.0
"Roscoe Street, St. Luke's",52,51.52295439,-0.094934859,32.0,Liverpool Street_diatance,1028.9288915519364,Lincoln's Inn Fields South_distance,1680.2045980304715,Blackfriars Pier_diatance,1433.2019377015213,19126.0
"Grafton Street, Mayfair",53,51.5099923,-0.143495266,11.0,Charing Cross_diatance,1438.447392775217,Green Park Devonshire Gates_diatance,489.9497028592894,Embankment Pier_diatance,1569.783132805152,2938.0
"Golden Lane, Barbican",54,51.52174785,-0.094475072,37.0,Liverpool Street_diatance,942.0422467224361,Lincoln's Inn Fields South_distance,1648.5267439758877,Blackfriars Pier_diatance,1315.871931278529,32149.0
"Finsbury Circus, Liverpool Street",55,51.51707521,-0.086685542,25.0,Liverpool Street_diatance,367.0772935263583,Lincoln's Inn Fields South_distance,2047.6396912043876,London Bridge City Pier_diatance,1137.2065165293352,1021.0
"Paddington Street, Marylebone",56,51.52058381,-0.154701411,38.0,Marylebone_diatance,638.6996243640581,The Regent's Park York Gate_distance,460.75362182874386,Embankment Pier_diatance,2760.4073103948526,23675.0
"Guilford Street , Bloomsbury",57,51.52334672,-0.120202614,28.0,St Pancras_diatance,984.0399614919739,Lincoln's Inn Fields West_distance,838.594099945568,Embankment Pier_diatance,1821.8750710059007,23833.0
"New Inn Yard, Shoreditch",58,51.52452699,-0.079248081,37.0,Liverpool Street_diatance,694.8336805270459,Victoria Park Bonner Gate_diatance,2334.1053563577066,Tower Millennium Pier_diatance,1918.8377373807634,6784.0
"Lisson Grove, St. John's Wood",60,51.52644828,-0.172190727,20.0,Marylebone_diatance,736.8237552514514,The Regent's Park Hanover Gate_distance,502.16937763064095,Embankment Pier_diatance,4131.584100246347,27036.0
"Great Dover Street, The Borough",61,51.49738251,-0.089446947,84.0,London Bridge_diatance,930.3823717916563,Geraldine Mary Harmsworth Park East_diatance,1158.9780082020386,London Bridge City Pier_diatance,1112.2936430988939,36858.0
"Cotton Garden Estate, Kennington",62,51.4907579,-0.106323685,34.0,Vauxhall_diatance,1268.4776127345701,Geraldine Mary Harmsworth Park East_diatance,586.4540474849988,Millbank Millennium Pier_diatance,1277.117189734194,19750.0
"Murray Grove , Hoxton",63,51.53089041,-0.089782579,62.0,Liverpool Street_diatance,1481.7533216989596,Lincoln's Inn Fields South_distance,2492.232120565353,Blackfriars Pier_diatance,2382.6245652511343,24596.0
"William IV Street, Strand",64,51.50946212,-0.124749274,49.0,Charing Cross_diatance,246.23161176236505,St. James's Park Waterloo Place Gate_distance,620.6999358215476,Embankment Pier_diatance,363.4941920275303,5614.0
"Gower Place , Euston",65,51.52522753,-0.13518856,1.0,Euston_diatance,389.04817686810935,The Regent's Park St. Andrew's Gate_distance,742.8511511355903,Embankment Pier_diatance,2244.306112665462,11192.0
"Holborn Circus, Holborn",66,51.51795029,-0.108657431,14.0,Blackfriars_diatance,807.3812495739784,Lincoln's Inn Fields South_distance,580.7275433855802,Blackfriars Pier_diatance,974.3550591547067,31587.0
"Hatton Garden, Holborn",67,51.51882555,-0.108028472,43.0,Blackfriars_diatance,875.5553307100328,Lincoln's Inn Fields South_distance,666.2257166699287,Blackfriars Pier_diatance,1035.8238637092516,17909.0
"Theobald's Road , Holborn",68,51.52059681,-0.116688468,6.0,St Pancras_diatance,1366.3657072450794,Lincoln's Inn Fields West_distance,525.6657050350469,Festival Pier_diatance,1513.7178648659306,5611.0
"Euston Road, Euston",69,51.5262363,-0.134407652,15.0,Euston_diatance,274.0254205713373,The Regent's Park St. Andrew's Gate_distance,802.718672685007,Embankment Pier_diatance,2324.66417934206,6943.0
"Calshot Street , King's Cross",70,51.53136059,-0.117069978,19.0,Kings Cross_diatance,446.17285317863525,Lincoln's Inn Fields West_distance,1716.265791814336,Blackfriars Pier_diatance,2562.0098449613524,18269.0
"Newgate Street , St. Paul's",71,51.5154186,-0.098850915,29.0,Blackfriars_diatance,512.570605545762,Lincoln's Inn Fields South_distance,1199.950076562456,Blackfriars Pier_diatance,552.9272274510538,1021.0
"Farringdon Lane, Clerkenwell",72,51.52352001,-0.108340165,15.0,Blackfriars_diatance,1375.9863296233855,Lincoln's Inn Fields South_distance,1030.3609286335266,Blackfriars Pier_diatance,1523.026596789467,10379.0
"Old Street Station, St. Luke's",73,51.52548,-0.089659871,41.0,Liverpool Street_diatance,943.7357924204784,Lincoln's Inn Fields South_distance,2136.570404736811,Blackfriars Pier_diatance,1827.5720262949803,7965.0
"Vauxhall Cross, Vauxhall",74,51.48591714,-0.124469948,77.0,Vauxhall_diatance,108.72284080136158,Geraldine Mary Harmsworth Park West_diatance,1433.3516335697195,St. George Wharf_diatance,198.1943595315666,48800.0
"Torrens Street, Angel",75,51.53219984,-0.105480698,15.0,Kings Cross_diatance,1232.7870017615771,Lincoln's Inn Fields South_distance,1984.2796206022736,Blackfriars Pier_diatance,2420.05789854589,18101.0
"Longford Street, The Regent's Park",76,51.52559505,-0.144083893,50.0,Euston_diatance,747.514678171987,The Regent's Park St. Andrew's Gate_distance,130.05865047230245,Embankment Pier_diatance,2600.628670147008,4780.0
"Russell Square Station, Bloomsbury",77,51.52341837,-0.124121774,25.0,St Pancras_diatance,898.0057344046132,Lincoln's Inn Fields West_distance,935.0142692028419,Embankment Pier_diatance,1838.285340899883,30478.0
"Sadlers Sports Centre, Finsbury",78,51.52486887,-0.099489485,26.0,Liverpool Street_diatance,1408.030808733772,Lincoln's Inn Fields South_distance,1544.944539017767,Blackfriars Pier_diatance,1587.6383878516865,32680.0
"Arundel Street, Temple",79,51.511726,-0.11385596,22.0,Blackfriars_diatance,751.3929602561273,Lincoln's Inn Fields South_distance,464.6986693733293,Festival Pier_diatance,591.9523520753287,2977.0
"Webber Street , Southwark",80,51.50069361,-0.102091246,52.0,Waterloo East_diatance,671.3886009205528,Geraldine Mary Harmsworth Park East_diatance,586.5156151198537,Bankside Pier_diatance,970.0218452304359,11382.0
"Great Titchfield Street, Fitzrovia",81,51.52025302,-0.141327271,41.0,Euston_diatance,1051.3374056626922,The Regent's Park St. Andrew's Gate_distance,650.4884554374607,Embankment Pier_diatance,2023.0737132700356,10022.0
"Chancery Lane, Holborn",82,51.514274,-0.111257,12.0,Blackfriars_diatance,644.1242872159546,Lincoln's Inn Fields South_distance,373.73381521874643,Blackfriars Pier_diatance,821.2694995571346,2977.0
"Panton Street, West End",83,51.50963938,-0.131510949,129.0,Charing Cross_diatance,628.833539209893,St. James's Park Waterloo Place Gate_distance,449.6069693963959,Embankment Pier_diatance,763.8483970301481,5614.0
"Breams Buildings, Holborn",84,51.51593725,-0.111778348,11.0,Blackfriars_diatance,775.6282210121694,Lincoln's Inn Fields South_distance,306.8717474682741,Blackfriars Pier_diatance,954.8675288641159,2733.0
"Tanner Street, Bermondsey",85,51.50064702,-0.078600401,138.0,London Bridge_diatance,685.6226835046755,Geraldine Mary Harmsworth Park East_diatance,1968.1195342701092,Tower Bridge Quay_diatance,688.7965842130417,14036.0
"Sancroft Street, Vauxhall",86,51.48947903,-0.115156562,42.0,Vauxhall_diatance,667.7095544021258,Geraldine Mary Harmsworth Park West_diatance,742.9529959550383,Millbank Millennium Pier_diatance,708.2526243976391,19457.0
"Devonshire Square, Liverpool Street",87,51.51646835,-0.079684557,18.0,Liverpool Street_diatance,273.0098203550301,Lincoln's Inn Fields South_distance,2527.567580492622,Tower Millennium Pier_diatance,1024.0728286497458,1021.0
"Bayley Street , Bloomsbury",88,51.51858757,-0.132053392,52.0,Euston_diatance,1137.119753175618,Lincoln's Inn Fields West_distance,1019.020438849153,Embankment Pier_diatance,1488.8523793673126,12381.0
"Tavistock Place, Bloomsbury",89,51.5262503,-0.123509611,35.0,St Pancras_diatance,600.0041047314563,Lincoln's Inn Fields West_distance,1209.5740002725643,Embankment Pier_diatance,2148.3185777600825,19753.0
"Harrington Square 1, Camden Town",90,51.53301907,-0.139174593,8.0,Euston_diatance,578.9723920591919,The Regent's Park Chester Gate_distance,756.4359758474094,Embankment Pier_diatance,3147.764113612164,15115.0
"Walnut Tree Walk, Vauxhall",91,51.49368637,-0.111014912,61.0,Waterloo_diatance,1057.6200584422286,Geraldine Mary Harmsworth Park West_diatance,210.46669439169014,Millbank Millennium Pier_diatance,970.7632850792044,17675.0
"Borough Road, Elephant & Castle",92,51.49889832,-0.100440521,40.0,Waterloo East_diatance,884.07500997724,Geraldine Mary Harmsworth Park East_diatance,502.4166949994643,Bankside Pier_diatance,1126.3716093988949,12715.0
"Cloudesley Road, Angel",93,51.53440868,-0.109025404,30.0,Kings Cross_diatance,1012.3174744087771,Lincoln's Inn Fields South_distance,2144.465716465432,Blackfriars Pier_diatance,2703.6745624049368,22945.0
"Bricklayers Arms, Borough",94,51.49506109,-0.085814489,96.0,London Bridge_diatance,1139.5885472150462,Geraldine Mary Harmsworth Park East_diatance,1404.7921923495007,London Bridge City Pier_diatance,1321.9973477281442,22671.0
"Aldersgate Street, Barbican",95,51.5208417,-0.097340162,32.0,Liverpool Street_diatance,1099.5885658091772,Lincoln's Inn Fields South_distance,1426.431927756441,Blackfriars Pier_diatance,1163.6752197762744,13475.0
"Falkirk Street, Hoxton",96,51.53095071,-0.078505384,45.0,Liverpool Street_diatance,1404.233622233653,Victoria Park St Agnes Gate_diatance,1980.0650275742798,Tower Millennium Pier_diatance,2633.098585881371,13333.0
"Gloucester Road (North), Kensington",97,51.49792478,-0.183834706,54.0,Paddington_diatance,2185.5362872339006,Kensington Gardens Palace Gate_diatance,440.72788798897824,Cadogan Pier_diatance,2068.368510361542,11047.0
"Hampstead Road, Euston",98,51.52554222,-0.138231303,86.0,Euston_diatance,435.8005749565108,The Regent's Park St. Andrew's Gate_distance,532.6107720580463,Embankment Pier_diatance,2372.3615046372024,4780.0
"Old Quebec Street, Marylebone",99,51.51457763,-0.158264483,103.0,Marylebone_diatance,1002.691517690345,Hyde Park Marble Arch_diatance,274.47243784033725,Embankment Pier_diatance,2691.6915050299453,13849.0
"Albert Embankment, Vauxhall",100,51.49043573,-0.122806861,41.0,Vauxhall_diatance,504.391391252495,Geraldine Mary Harmsworth Park West_diatance,1011.2388766672473,Millbank Millennium Pier_diatance,198.42432891614646,11597.0
"Queen Street 1, Bank",101,51.51155322,-0.0929401,24.0,Cannon Street_diatance,201.5266509124835,Lincoln's Inn Fields South_distance,1671.8653146401905,Bankside Pier_diatance,408.61708334126115,1021.0
"Jewry Street, Aldgate",102,51.51340693,-0.076793375,34.0,Fenchurch Street_diatance,246.3146677435716,Lincoln's Inn Fields South_distance,2737.3947562372473,Tower Millennium Pier_diatance,697.45562105029,1021.0
"Vicarage Gate, Kensington",103,51.50472376,-0.192538767,31.0,Paddington_diatance,1750.7576491312884,Kensington Gardens Studio Gate_diatance,299.08014830102377,Cadogan Pier_diatance,3034.318609048593,8796.0
"Crosswall, Tower",104,51.51159481,-0.077121322,50.0,Fenchurch Street_diatance,84.3954123548188,Geraldine Mary Harmsworth Park East_diatance,2646.5336604902777,Tower Millennium Pier_diatance,496.0391596619113,1021.0
"Westbourne Grove, Bayswater",105,51.51552971,-0.190240716,61.0,Paddington_diatance,939.4884802940513,Kensington Gardens Black Lion Gate_diatance,626.3648607587306,Cadogan Pier_diatance,3993.527608036535,22058.0
"Woodstock Street, Mayfair",106,51.51410514,-0.147301667,23.0,Marylebone_diatance,1476.5504470005305,Hyde Park Marble Arch_diatance,817.8326703931128,Embankment Pier_diatance,1963.9458321478053,2938.0
"Finsbury Leisure Centre, St. Luke's",107,51.52600832,-0.096317627,59.0,Liverpool Street_diatance,1300.7911776558817,Lincoln's Inn Fields South_distance,1793.8902207174795,Blackfriars Pier_diatance,1740.8284939010919,19126.0
"Abbey Orchard Street, Westminster",108,51.49812559,-0.132102166,41.0,Victoria_diatance,895.2204011512503,St. James's Park Queen Anne's Gate_distance,333.333198939049,Westminster Pier_diatance,738.861977005645,24957.0
"Soho Square , Soho",109,51.51563144,-0.132328837,82.0,Charing Cross_diatance,1106.9876836457404,Lincoln's Inn Fields West_distance,995.0906314191291,Embankment Pier_diatance,1226.6571319067234,10317.0
"Wellington Road, St. John's Wood",110,51.53304322,-0.172528678,44.0,Marylebone_diatance,1287.2216011673297,The Regent's Park Hanover Gate_distance,702.1168764983221,Embankment Pier_diatance,4576.728099387388,12418.0
"Park Lane , Hyde Park",111,51.5100172,-0.157275636,493.0,Marylebone_diatance,1507.702190253664,Hyde Park Park Lane_diatance,110.65682244942542,Embankment Pier_diatance,2510.135865136177,891.0
"Stonecutter Street, Holborn",112,51.51580998,-0.105270275,4.0,Blackfriars_diatance,493.7867239505513,Lincoln's Inn Fields South_distance,755.7057612507606,Blackfriars Pier_diatance,650.1814290021525,2733.0
"Gloucester Road (Central), South Kensington",113,51.49646288,-0.183289032,54.0,Paddington_diatance,2336.958295208938,Kensington Gardens Palace Gate_diatance,606.1081787694764,Cadogan Pier_diatance,1915.49770702639,19558.0
"Park Road (Baker Street), The Regent's Park",114,51.52451738,-0.158963647,204.0,Marylebone_diatance,320.65762206598066,The Regent's Park Clarence Gate_distance,56.76147445929383,Embankment Pier_diatance,3253.1606294107683,3413.0
"Braham Street, Aldgate",115,51.51423368,-0.073537654,62.0,Fenchurch Street_diatance,455.95114291377064,Mile End Park Football Pitch_diatance,2727.786997945474,Tower Millennium Pier_diatance,858.1922491218431,23872.0
"Little Argyll Street, West End",116,51.51449962,-0.141423695,121.0,Charing Cross_diatance,1487.878856397745,Green Park Devonshire Gates_diatance,1009.6068843535453,Embankment Pier_diatance,1622.3700449580667,2938.0
"Lollard Street, Vauxhall",117,51.49288067,-0.114934001,87.0,Vauxhall_diatance,952.2103910332793,Geraldine Mary Harmsworth Park West_diatance,416.3513127477688,Millbank Millennium Pier_diatance,686.9931012637715,12443.0
"Rochester Row, Westminster",118,51.49582705,-0.13547809,23.0,Victoria_diatance,651.0190072331086,St. James's Park Buckingham Gate_distance,557.3212233482622,Millbank Millennium Pier_diatance,871.6953889591501,15046.0
"Bath Street, St. Luke's",119,51.52589324,-0.090847761,69.0,Liverpool Street_diatance,1029.114472700883,Lincoln's Inn Fields South_distance,2091.067129857483,Blackfriars Pier_diatance,1836.407097967868,7965.0
"The Guildhall, Guildhall",120,51.51573534,-0.093080779,9.0,Cannon Street_diatance,639.9949718871934,Lincoln's Inn Fields South_distance,1598.987352056617,Blackfriars Pier_diatance,787.1771996535077,7347.0
"Baker Street, Marylebone",121,51.51891348,-0.156166631,13.0,Marylebone_diatance,663.5058075421516,The Regent's Park Clarence Gate_distance,663.0996469799661,Embankment Pier_diatance,2751.549856297918,7737.0
"Norton Folgate, Liverpool Street",122,51.52111369,-0.078869751,27.0,Liverpool Street_diatance,358.3633409237733,Victoria Park Bonner Gate_diatance,2502.4184293893813,Tower Millennium Pier_diatance,1539.1375128938319,1021.0
"St. John Street, Finsbury",123,51.52836014,-0.104724625,40.0,Kings Cross_diatance,1361.1977473968802,Lincoln's Inn Fields South_distance,1621.1273976156888,Blackfriars Pier_diatance,1989.9289372233404,20244.0
"Eaton Square, Belgravia",124,51.49654462,-0.150905245,27.0,Victoria_diatance,422.6845670609915,Green Park Wellington Arch_diatance,681.9085542152029,Battersea Power Station Pier_diatance,1445.230844622243,7876.0
"Borough High Street, The Borough",125,51.50069491,-0.094524319,51.0,London Bridge_diatance,829.2889976964002,Geraldine Mary Harmsworth Park East_diatance,951.5303735134706,Bankside Pier_diatance,911.6841145528565,10448.0
"Museum of London, Barbican",126,51.51782144,-0.096496865,23.0,Blackfriars_diatance,825.2764503705118,Lincoln's Inn Fields South_distance,1383.8683659035148,Blackfriars Pier_diatance,857.8943244834915,13475.0
"Wood Street, Guildhall",127,51.51700801,-0.09388536,14.0,Cannon Street_diatance,790.2935674081729,Lincoln's Inn Fields South_distance,1550.6842401288418,Blackfriars Pier_diatance,862.0770759974442,7347.0
"Emperor's Gate, South Kensington",128,51.49536226,-0.185296516,64.0,Paddington_diatance,2486.0035464471125,Kensington Gardens Palace Gate_diatance,727.9608387358945,Cadogan Pier_diatance,1912.6457039070933,31068.0
"Golden Square, Soho",129,51.5118973,-0.137043852,43.0,Charing Cross_diatance,1081.8012275688989,St. James's Park Waterloo Place Gate_distance,807.7962800155723,Embankment Pier_diatance,1216.955415674727,2938.0
"Tower Gardens , Tower",130,51.50950627,-0.075459482,193.0,Fenchurch Street_diatance,288.0686243950768,Geraldine Mary Harmsworth Park East_diatance,2593.8726386939065,Tower Millennium Pier_diatance,343.6880449482562,7364.0
"Eversholt Street , Camden Town",131,51.53300545,-0.136792671,36.0,Euston_diatance,504.3287870265,The Regent's Park Chester Gate_distance,867.0580019960552,Embankment Pier_diatance,3085.4488989122374,22264.0
"Bethnal Green Road, Shoreditch",132,51.52364804,-0.074754872,108.0,Liverpool Street_diatance,756.3564501607791,Victoria Park Bonner Gate_diatance,2109.852326070637,Tower Millennium Pier_diatance,1843.296711828298,14523.0
"Derry Street, Kensington",133,51.50136494,-0.191462381,53.0,Paddington_diatance,2019.1553429831224,Kensington Gardens Studio Gate_diatance,377.45659635867247,Cadogan Pier_diatance,2695.2185734279738,9925.0
"Wapping High Street, Wapping",134,51.504904,-0.06797,77.0,Fenchurch Street_diatance,1016.2968904634495,Mile End Park Football Pitch_diatance,2751.1238264377134,Tower Bridge Quay_diatance,401.82475913343916,7364.0
"Clerkenwell Green, Clerkenwell",135,51.52326004,-0.104708922,44.0,Blackfriars_diatance,1301.918329199012,Lincoln's Inn Fields South_distance,1160.9667694445184,Blackfriars Pier_diatance,1429.4951549577104,10379.0
"Queen Victoria Street, St. Paul's",136,51.51196176,-0.097441687,32.0,Blackfriars_diatance,386.7472221396828,Lincoln's Inn Fields South_distance,1360.3651538306697,Blackfriars Pier_diatance,284.61721819724465,1021.0
"Green Street, Mayfair",138,51.51227622,-0.157436972,119.0,Marylebone_diatance,1263.6056308457755,Hyde Park Marble Arch_diatance,87.87422975721448,Embankment Pier_diatance,2566.9143482005356,9898.0
"Lambeth Road, Vauxhall",139,51.49488108,-0.117974901,30.0,Waterloo_diatance,971.8364774770944,Geraldine Mary Harmsworth Park West_diatance,505.83270280138004,Millbank Millennium Pier_diatance,579.4318832027691,8461.0
"Finsbury Square , Moorgate",140,51.52096262,-0.085634242,39.0,Liverpool Street_diatance,376.4843810076112,Lincoln's Inn Fields South_distance,2195.2418591230967,Bankside Pier_diatance,1560.285488215561,7965.0
"Chapel Place, Marylebone",141,51.51530805,-0.147203711,20.0,Marylebone_diatance,1394.7282557686053,Hyde Park Marble Arch_diatance,869.7179347203871,Embankment Pier_diatance,2015.5884951769942,10022.0
"West Cromwell Road, Earl's Court",142,51.49372451,-0.198286569,21.0,Paddington_diatance,2991.16301788418,Holland Park Ilchester Gate_diatance,845.7395739112459,Cadogan Pier_diatance,2520.0248154862325,16405.0
"Pont Street, Knightsbridge",143,51.4968865,-0.161203828,58.0,Victoria_diatance,1136.0085886824413,Hyde Park Albert Gate_diatance,659.1039761939641,Cadogan Pier_diatance,1602.9252796355825,11095.0
"Kennington Cross, Kennington",144,51.48894022,-0.111435796,80.0,Vauxhall_diatance,862.7652392469065,Geraldine Mary Harmsworth Park West_diatance,738.9454194695487,Millbank Millennium Pier_diatance,970.8378920136712,17983.0
"Ilchester Place, Kensington",145,51.50074359,-0.202759212,19.0,Paddington_diatance,2551.5973470593517,Holland Park Ilchester Gate_diatance,6.7213661779544545,Cadogan Pier_diatance,3211.48609051104,5099.0
"Vauxhall Bridge , Pimlico",146,51.48836528,-0.129361842,28.0,Vauxhall_diatance,524.7173372660405,St. James's Park Queen Anne's Gate_distance,1430.051041256833,St. George Wharf_diatance,270.49147710766994,18587.0
"Portugal Street, Holborn",147,51.51494305,-0.11614642,0.0,Charing Cross_diatance,957.3583312084911,Lincoln's Inn Fields South_distance,78.1068022413408,Festival Pier_diatance,890.4586307699414,2977.0
"Tachbrook Street, Victoria",148,51.49211134,-0.138364847,40.0,Victoria_diatance,669.0192692589072,St. James's Park Buckingham Gate_distance,931.4670551523664,Millbank Millennium Pier_diatance,946.9647957249385,36045.0
"Kennington Road Post Office, Oval",149,51.48478899,-0.110683213,57.0,Vauxhall_diatance,854.8968372702988,Geraldine Mary Harmsworth Park West_diatance,1199.0368327611263,St. George Wharf_diatance,1160.3001785646873,13236.0
"Holy Trinity Brompton, Knightsbridge",150,51.49705603,-0.168917077,30.0,Victoria_diatance,1670.2814727711782,Hyde Park Alexandra Gate_diatance,660.4842877211842,Cadogan Pier_diatance,1591.215355284348,7048.0
"Chepstow Villas, Notting Hill",151,51.51213691,-0.201554966,49.0,Paddington_diatance,1793.1181804838575,Kensington Gardens Black Lion Gate_diatance,978.4628409212526,Cadogan Pier_diatance,4068.143048532639,11572.0
"Hampton Street, Walworth",152,51.49217002,-0.101536865,92.0,Waterloo East_diatance,1452.9686817356062,Geraldine Mary Harmsworth Park East_diatance,530.7053092273221,Millbank Millennium Pier_diatance,1604.06115879325,46000.0
"Bayswater Road, Hyde Park",153,51.511933,-0.174411,195.0,Paddington_diatance,599.8048602174457,Kensington Gardens Marlborough Gate_diatance,115.85065285561484,Cadogan Pier_diatance,3283.1962567320525,14280.0
"Waterloo Station 3, Waterloo",154,51.50379168,-0.11282408,35.0,Waterloo_diatance,81.19333624425882,Geraldine Mary Harmsworth Park North_diatance,793.9495448575082,Festival Pier_diatance,495.78980715945994,6252.0
"Lexham Gardens, Kensington",155,51.49586666,-0.191933711,36.0,Paddington_diatance,2580.1420367891537,Kensington Gardens Palace Gate_diatance,852.8430950916547,Cadogan Pier_diatance,2287.6379735360015,21709.0
"New Kent Road, The Borough",156,51.49443626,-0.092921165,52.0,London Bridge_diatance,1323.7619255613404,Geraldine Mary Harmsworth Park East_diatance,925.7945493900206,London Bridge City Pier_diatance,1502.6037988013811,9371.0
"Wright's Lane, Kensington",157,51.50039792,-0.193068385,31.0,Paddington_diatance,2168.2324612255325,Kensington Gardens Studio Gate_diatance,530.1786692973578,Cadogan Pier_diatance,2689.1301424292224,9925.0
"Trebovir Road, Earl's Court",158,51.49085368,-0.196170309,42.0,Paddington_diatance,3208.796189435359,Holland Park Ilchester Gate_diatance,1196.6769154775602,Chelsea Harbour Pier_diatance,2186.8047536704203,22219.0
"Waterloo Place, St. James's",160,51.50663341,-0.131773845,112.0,Charing Cross_diatance,607.9990559212757,St. James's Park Waterloo Place Gate_distance,121.04724033749892,Embankment Pier_diatance,723.3958245530447,1810.0
"Guildhouse Street, Victoria",161,51.49234577,-0.141334487,39.0,Victoria_diatance,530.4089561306291,St. James's Park Buckingham Gate_distance,927.3202865629038,Battersea Power Station Pier_diatance,989.8402733485999,23108.0
"Southampton Place, Holborn",162,51.51760685,-0.121328408,23.0,Charing Cross_diatance,1130.4975921082528,Lincoln's Inn Fields West_distance,298.2753154934083,Embankment Pier_diatance,1181.9410392001105,5611.0
"Sloane Avenue, Knightsbridge",163,51.4931848,-0.167894973,80.0,Victoria_diatance,1643.3047529235646,Hyde Park Alexandra Gate_diatance,1069.0986756598836,Cadogan Pier_diatance,1155.7819189347592,22959.0
"Cleveland Gardens, Bayswater",164,51.515607,-0.183118788,64.0,Paddington_diatance,461.22650222494207,Kensington Gardens Lancaster Gate_diatance,567.9484378577166,Cadogan Pier_diatance,3824.1988094865033,27046.0
"Orsett Terrace, Bayswater",165,51.517932,-0.183716959,26.0,Paddington_diatance,480.67864005002593,Kensington Gardens Lancaster Gate_diatance,826.063987176438,Cadogan Pier_diatance,4083.2878628731687,16583.0
"Seville Street, Knightsbridge",166,51.50185512,-0.159237081,62.0,Victoria_diatance,1157.6587131918043,Hyde Park Albert Gate_diatance,94.15610733374794,Cadogan Pier_diatance,2171.879106959352,9963.0
"Eccleston Place, Victoria",167,51.49395092,-0.147624377,41.0,Victoria_diatance,353.55072351555987,St. James's Park Buckingham Gate_distance,965.7987911249579,Battersea Power Station Pier_diatance,1121.4745082891263,6936.0
"Argyll Road, Kensington",168,51.50040123,-0.195455928,42.0,Paddington_diatance,2257.643303412298,Holland Park Duchess of Bedford_diatance,433.4661016218523,Cadogan Pier_diatance,2805.5854798789724,12893.0
"Porchester Place, Paddington",169,51.51474612,-0.165164288,134.0,Paddington_diatance,853.2065552428087,Hyde Park Marble Arch_diatance,535.02493542101,Embankment Pier_diatance,3153.6869898633367,13881.0
"Hardwick Street, Clerkenwell",170,51.52784273,-0.108068155,15.0,Kings Cross_diatance,1169.18218129043,Lincoln's Inn Fields South_distance,1468.075056282427,Blackfriars Pier_diatance,1977.5495481050114,14646.0
"Collingham Gardens, Earl's Court",171,51.4916156,-0.186753859,48.0,Paddington_diatance,2914.6553302602647,Kensington Gardens Palace Gate_diatance,1153.9288289170863,Cadogan Pier_diatance,1716.3566224728586,20277.0
"Sumner Place, South Kensington",172,51.49121192,-0.173715911,25.0,Victoria_diatance,2089.5738578641954,Hyde Park Alexandra Gate_diatance,1187.5431387272906,Cadogan Pier_diatance,1061.4483873778242,10873.0
"Waterloo Road, South Bank",173,51.50486,-0.113001,43.0,Waterloo_diatance,196.1871707186343,Geraldine Mary Harmsworth Park North_diatance,909.4001377604176,Festival Pier_diatance,408.4739800952969,17685.0
"Strand, Strand",174,51.512582,-0.1150573,19.0,Charing Cross_diatance,793.176946317515,Lincoln's Inn Fields South_distance,349.4649855319628,Festival Pier_diatance,648.8802782399289,2977.0
"Worship Street, Shoreditch",175,51.521668,-0.079608554,14.0,Liverpool Street_diatance,386.2998030335688,Victoria Park Bonner Gate_diatance,2511.3433373043654,Tower Millennium Pier_diatance,1601.5436194000672,1021.0
"Gloucester Terrace, Bayswater",176,51.51791921,-0.188098863,45.0,Paddington_diatance,780.2284530136939,Kensington Gardens Black Lion Gate_diatance,869.0722483414761,Cadogan Pier_diatance,4181.226085415251,16583.0
"Ashley Place, Victoria",177,51.49616092,-0.140947636,70.0,Victoria_diatance,271.1159994961879,St. James's Park Buckingham Gate_distance,511.5572365362058,Millbank Millennium Pier_diatance,1226.0740516229366,21065.0
"Warwick Square, Pimlico",178,51.48985626,-0.141923621,56.0,Victoria_diatance,775.8600606555248,Battersea Park Sopwith Way_diatance,1070.302676089548,Battersea Power Station Pier_diatance,716.4527334282818,32905.0
"North Audley Street, Mayfair",180,51.5129118,-0.153645496,67.0,Marylebone_diatance,1304.7464607553077,Hyde Park Marble Arch_diatance,359.4474214777375,Embankment Pier_diatance,2331.3076878874367,9898.0
"Belgrave Square, Belgravia",181,51.49941247,-0.152317537,34.0,Victoria_diatance,607.130558099629,Green Park Wellington Arch_diatance,406.1387182987128,Battersea Power Station Pier_diatance,1778.322413674364,7876.0
"Bell Street , Marylebone",182,51.52202903,-0.165842551,31.0,Marylebone_diatance,229.9104403582811,The Regent's Park Clarence Gate_distance,607.1027794145953,Embankment Pier_diatance,3505.152548242091,30382.0
"Riverlight North, Nine Elms",183,51.482362,-0.13612398,108.0,Vauxhall_diatance,996.6220662828091,Battersea Park Sopwith Way_diatance,922.3536335661336,Battersea Power Station Pier_diatance,701.788659140453,4849.0
"Portland Place, Marylebone",184,51.52071513,-0.14521173,46.0,Euston_diatance,1156.5071510500513,The Regent's Park St. Andrew's Gate_distance,518.4011513785535,Embankment Pier_diatance,2250.1357676604493,13548.0
"Alderney Street, Pimlico",185,51.48805753,-0.140741432,104.0,Victoria_diatance,990.5666698349856,Battersea Park Sopwith Way_diatance,949.2842979992726,Battersea Power Station Pier_diatance,584.4112820212493,32905.0
"South Wharf Road, Paddington",186,51.51733558,-0.175810943,45.0,Paddington_diatance,79.7797214892468,Kensington Gardens Marlborough Gate_diatance,653.5425095222042,Cadogan Pier_diatance,3891.66758156686,6897.0
"Queen's Gate (South), South Kensington",187,51.49247977,-0.178433004,42.0,Victoria_diatance,2373.0176307389465,Kensington Gardens Albert Memorial Gate_diatance,1024.3616097663944,Cadogan Pier_diatance,1359.4921091616654,8081.0
"Nutford Place, Marylebone",188,51.5165179,-0.164393768,28.0,Marylebone_diatance,738.2219952169605,Hyde Park Marble Arch_diatance,628.4905741034055,Embankment Pier_diatance,3162.9044928393964,19577.0
"Claremont Square, Angel",189,51.53166681,-0.109914711,24.0,Kings Cross_diatance,929.4670284977677,Lincoln's Inn Fields South_distance,1833.6519948142409,Blackfriars Pier_diatance,2421.251869255893,21978.0
"Rampayne Street, Pimlico",190,51.48997562,-0.132845681,63.0,Vauxhall_diatance,824.3704326796563,St. James's Park Queen Anne's Gate_distance,1218.802818944575,St. George Wharf_diatance,561.4898752216484,18587.0
"Hyde Park Corner, Hyde Park",191,51.50311799,-0.153520935,863.0,Victoria_diatance,943.2413107907045,Hyde Park Queen Elizabeth Gate_diatance,136.19384694765472,Westminster Pier_diatance,2108.2801736405595,5287.0
"Wardour Street, Soho",192,51.51251523,-0.133201961,61.0,Charing Cross_diatance,894.28576521645,St. James's Park Waterloo Place Gate_distance,781.0329098631969,Embankment Pier_diatance,1026.4039336166504,10317.0
"Bankside Mix, Bankside",193,51.50581776,-0.100186337,30.0,Blackfriars_diatance,671.7962920234751,Geraldine Mary Harmsworth Park North_diatance,1124.0646001260232,Bankside Pier_diatance,403.5443573228119,13123.0
"Hop Exchange, The Borough",194,51.50462759,-0.091773776,118.0,London Bridge_diatance,467.92377409878634,Geraldine Mary Harmsworth Park East_diatance,1374.8787703449839,London Bridge City Pier_diatance,556.0403241451046,10448.0
"Milroy Walk, South Bank",195,51.50724437,-0.106237501,44.0,Waterloo East_diatance,440.12775090330115,Geraldine Mary Harmsworth Park North_diatance,1132.8496676180634,Blackfriars Pier_diatance,524.4822493313143,9469.0
"Union Street, The Borough",196,51.50368837,-0.098497684,27.0,Waterloo East_diatance,804.3524792847513,Geraldine Mary Harmsworth Park East_diatance,999.2127230989857,Bankside Pier_diatance,577.276130980949,13123.0
"Stamford Street, South Bank",197,51.50556905,-0.111606696,45.0,Waterloo East_diatance,193.80013472823148,Geraldine Mary Harmsworth Park North_diatance,958.3072463619054,Festival Pier_diatance,457.05196634371924,17685.0
"Great Tower Street, Monument",199,51.51048489,-0.082989638,35.0,Fenchurch Street_diatance,340.1191835229527,Geraldine Mary Harmsworth Park East_diatance,2265.123197428073,London Bridge City Pier_diatance,411.7146653561292,1021.0
"LMU Commercial Road, Whitechapel",200,51.51492456,-0.066078037,50.0,Fenchurch Street_diatance,932.1563714512026,Mile End Park Football Pitch_diatance,2206.1134703371586,Tower Bridge Quay_diatance,1120.6858283967772,28982.0
"Dorset Square, Marylebone",201,51.5225965,-0.161113413,72.0,Marylebone_diatance,142.02559337210232,The Regent's Park Clarence Gate_distance,310.913297306276,Embankment Pier_diatance,3254.626062534251,26324.0
"Leman Street, Aldgate",202,51.51236389,-0.06954201,103.0,Fenchurch Street_diatance,615.4781184901567,Mile End Park Football Pitch_diatance,2503.9449561975525,Tower Bridge Quay_diatance,762.0987360857764,23872.0
"West Smithfield Rotunda, Farringdon",203,51.51821864,-0.100791005,37.0,Blackfriars_diatance,751.6657417971333,Lincoln's Inn Fields South_distance,1103.1701903741969,Blackfriars Pier_diatance,845.0407575880129,2733.0
"Margery Street, Clerkenwell",204,51.52659961,-0.112432615,31.0,Kings Cross_diatance,990.5211707688101,Lincoln's Inn Fields South_distance,1245.5034101949664,Blackfriars Pier_diatance,1946.611000547064,10332.0
"New Road 1 , Whitechapel",206,51.518154,-0.062697,49.0,Fenchurch Street_diatance,1315.2041299723853,Mile End Park Solebay Street_diatance,1899.4999047317178,Tower Bridge Quay_diatance,1547.7168443178807,10945.0
"Grosvenor Crescent, Belgravia",207,51.50135267,-0.153194766,16.0,Victoria_diatance,785.4704526018894,Hyde Park White Horse Gate_diatance,231.75300423827852,Battersea Power Station Pier_diatance,2002.3897887903627,5287.0
"Mallory Street, Marylebone",208,51.52505151,-0.166304359,39.0,Marylebone_diatance,315.1982734379409,The Regent's Park Hanover Gate_distance,375.35067399583727,Embankment Pier_diatance,3704.220216553663,31119.0
"Denyer Street, Knightsbridge",209,51.49358391,-0.165101392,57.0,Victoria_diatance,1444.8840957335306,Hyde Park Albert Gate_diatance,1098.588442719746,Cadogan Pier_diatance,1198.5244916790477,22959.0
"Hinde Street, Marylebone",210,51.51681444,-0.151926305,37.0,Marylebone_diatance,1037.082744652533,Hyde Park Marble Arch_diatance,700.5142119961982,Embankment Pier_diatance,2382.79976190332,7737.0
"Cadogan Place, Knightsbridge",211,51.49464523,-0.158105512,32.0,Victoria_diatance,946.4010415235921,Hyde Park Albert Gate_diatance,881.9498566924913,Cadogan Pier_diatance,1432.5056250503828,11095.0
"Campden Hill Road, Notting Hill",212,51.50658458,-0.199004026,14.0,Paddington_diatance,1925.3601595109121,Holland Park Duchess of Bedford_diatance,478.0474930415866,Cadogan Pier_diatance,3475.5133617137403,11513.0
"Wellington Arch, Hyde Park",213,51.50274025,-0.149569201,309.0,Victoria_diatance,758.3881175837794,Green Park Wellington Arch_diatance,15.024605433085227,Westminster Pier_diatance,1832.5608405066223,1810.0
"Endsleigh Gardens, Euston",214,51.52683806,-0.130504336,22.0,Euston_diatance,345.3535837630808,The Regent's Park Chester Gate_distance,1071.9413801826483,Embankment Pier_diatance,2297.7139402736975,17263.0
"Moorfields, Moorgate",215,51.51906932,-0.088285377,17.0,Liverpool Street_diatance,446.328898529051,Lincoln's Inn Fields South_distance,1967.8993300449488,Blackfriars Pier_diatance,1284.5376500435511,1021.0
"Old Brompton Road, South Kensington",216,51.49094565,-0.181190899,76.0,Victoria_diatance,2596.6089386507892,Kensington Gardens Queen Gate_diatance,1191.7730624383573,Cadogan Pier_diatance,1366.360295401678,21151.0
"Wormwood Street, Liverpool Street",217,51.51615461,-0.082422399,20.0,Liverpool Street_diatance,263.2885849341503,Lincoln's Inn Fields South_distance,2337.156129236286,Tower Millennium Pier_diatance,1017.49939458022,1021.0
"St. Luke's Church, Chelsea",218,51.48971651,-0.170194408,38.0,Victoria_diatance,1917.468346985627,Battersea Park Albert Gate_diatance,1179.0693110690831,Cadogan Pier_diatance,809.8502831024839,9264.0
"Bramham Gardens, Earl's Court",219,51.49016361,-0.19039362,105.0,Paddington_diatance,3137.4263816728317,Kensington Gardens Palace Gate_diatance,1369.5980674641953,Cadogan Pier_diatance,1852.4864150711887,17448.0
"Chelsea Green, Chelsea",220,51.49066456,-0.166485083,45.0,Victoria_diatance,1639.9309310606748,Battersea Park Albert Gate_diatance,1236.6513592194224,Cadogan Pier_diatance,870.7342395520092,14577.0
"Horseferry Road, Westminster",221,51.49481649,-0.13045856,37.0,Victoria_diatance,1012.4281403678257,St. James's Park Queen Anne's Gate_distance,718.0191566866109,Millbank Millennium Pier_diatance,522.7959540302337,38122.0
"Knightsbridge, Hyde Park",222,51.50275704,-0.155349725,62.0,Victoria_diatance,1001.0010618808686,Hyde Park White Horse Gate_diatance,36.35994637710724,Battersea Power Station Pier_diatance,2193.483898676509,5287.0
"Rodney Road , Walworth",223,51.49148474,-0.090220911,161.0,London Bridge_diatance,1576.5560933627407,Geraldine Mary Harmsworth Park East_diatance,1206.573798455269,London Bridge City Pier_diatance,1760.0859787967172,17498.0
"Queensway, Kensington Gardens",224,51.51031,-0.18740235,47.0,Paddington_diatance,1047.9618559386374,Kensington Gardens Black Lion Gate_diatance,35.57252973296298,Cadogan Pier_diatance,3384.434706931118,27598.0
"Notting Hill Gate Station, Notting Hill",225,51.50935342,-0.196422,74.0,Paddington_diatance,1602.182091064889,Kensington Gardens Black Lion Gate_diatance,602.6702577415184,Cadogan Pier_diatance,3608.8959085922,17672.0
"Charles II Street, West End",226,51.50844614,-0.131961389,43.0,Charing Cross_diatance,622.2405815552587,St. James's Park Waterloo Place Gate_distance,320.57027126356866,Embankment Pier_diatance,753.2666795323439,1810.0
"Great Percy Street, Clerkenwell",227,51.52891573,-0.115480888,30.0,Kings Cross_diatance,665.3224230949636,Lincoln's Inn Fields West_distance,1453.440814518097,Blackfriars Pier_diatance,2269.5012962535643,13116.0
"St. James's Square, St. James's",228,51.50742485,-0.134621209,40.0,Charing Cross_diatance,797.4166894289425,St. James's Park Waterloo Place Gate_distance,310.55609383413395,Embankment Pier_diatance,920.787527906509,1810.0
"Whitehall Place, Strand",229,51.50654321,-0.123179697,88.0,Charing Cross_diatance,106.53308196086928,St. James's Park Waterloo Place Gate_distance,566.5847091665419,Embankment Pier_diatance,136.4113897715913,1810.0
"Poured Lines, Bankside",230,51.50669284,-0.103137426,30.0,Blackfriars_diatance,545.7341771179647,Geraldine Mary Harmsworth Park North_diatance,1124.6976624004242,Blackfriars Pier_diatance,462.27773313693353,9469.0
"Queen's Gate (Central), South Kensington",231,51.49396755,-0.17873226,44.0,Victoria_diatance,2367.2173523746574,Kensington Gardens Queen Gate_diatance,860.4093304224898,Cadogan Pier_diatance,1505.1509272546343,8081.0
"Carey Street, Holborn",232,51.51501025,-0.112753217,8.0,Blackfriars_diatance,774.1566291548128,Lincoln's Inn Fields South_distance,247.9491129640785,Blackfriars Pier_diatance,951.9571410800554,5611.0
"Pall Mall East, West End",233,51.50777049,-0.130699733,81.0,Charing Cross_diatance,526.8282155448692,St. James's Park Waterloo Place Gate_distance,244.07593607069842,Embankment Pier_diatance,654.0093007838364,1810.0
"Liverpool Road (N1 Centre), Angel",234,51.53450449,-0.106992706,19.0,Kings Cross_diatance,1151.9878122897687,Lincoln's Inn Fields South_distance,2191.4493434244387,Blackfriars Pier_diatance,2688.6501792867657,11849.0
"Kennington Road  , Vauxhall",235,51.49571828,-0.110889274,36.0,Waterloo_diatance,836.2495253024373,Geraldine Mary Harmsworth Park West_diatance,18.797237987066254,Millbank Millennium Pier_diatance,1051.6115714819869,8733.0
"Fashion Street, Whitechapel",236,51.51838043,-0.073438925,40.0,Liverpool Street_diatance,585.5935332686591,Victoria Park Bonner Gate_diatance,2407.1414205768438,Tower Millennium Pier_diatance,1291.5439007539953,16990.0
"Dock Street, Wapping",237,51.5097860151,-0.0681619805156,27.0,Fenchurch Street_diatance,724.1851733054593,Mile End Park Football Pitch_diatance,2507.7574525770274,Tower Bridge Quay_diatance,563.1776572040275,11416.0
"Frampton Street, Paddington",238,51.5233534,-0.175116099,27.0,Paddington_diatance,706.2159288098119,The Regent's Park Hanover Gate_distance,862.7679405989702,Embankment Pier_diatance,4143.0393528040395,17517.0
"Warren Street Station, Euston",239,51.52443845,-0.138019439,50.0,Euston_diatance,532.7532771645508,The Regent's Park St. Andrew's Gate_distance,556.3102289645966,Embankment Pier_diatance,2258.8517676793267,11192.0
"Beaumont Street, Marylebone",242,51.52200801,-0.151359288,58.0,Marylebone_diatance,814.4786050582602,The Regent's Park York Gate_distance,316.33900613213945,Embankment Pier_diatance,2666.3695114259494,10935.0
"Gloucester Street, Pimlico",243,51.49096258,-0.139625122,78.0,Victoria_diatance,722.0053180103254,St. James's Park Buckingham Gate_distance,1062.3717844265534,Battersea Power Station Pier_diatance,897.1104288086937,23108.0
"Earnshaw Street , Covent Garden",244,51.51611887,-0.128585022,32.0,Charing Cross_diatance,1030.8059535977459,Lincoln's Inn Fields West_distance,735.7345013810999,Embankment Pier_diatance,1133.5243193084314,14797.0
"Grosvenor Road, Pimlico",245,51.4853572,-0.142207481,19.0,Victoria_diatance,1262.9619182012257,Battersea Park Sopwith Way_diatance,661.1063449572939,Battersea Power Station Pier_diatance,304.2003622883251,37134.0
"Berry Street, Clerkenwell",246,51.52285301,-0.099994052,33.0,Blackfriars_diatance,1268.4468402767177,Lincoln's Inn Fields South_distance,1377.6419853053753,Blackfriars Pier_diatance,1361.8793339223823,32680.0
"St. John's Wood Church, The Regent's Park",247,51.530529,-0.167515,97.0,Marylebone_diatance,883.1461989393282,The Regent's Park Hanover Gate_distance,269.51364427080387,Embankment Pier_diatance,4131.281297171815,6376.0
"Triangle Car Park, Hyde Park",248,51.50645179,-0.170279555,474.0,Paddington_diatance,1269.5758827090683,Serpentine Bridge North_diatance,105.73752499830053,Cadogan Pier_diatance,2640.0824985265167,891.0
"Harper Road, The Borough",249,51.49859784,-0.096191134,46.0,London Bridge_diatance,1069.932800333638,Geraldine Mary Harmsworth Park East_diatance,739.6596764682184,Bankside Pier_diatance,1131.9702007090918,15510.0
"Royal Avenue 1, Chelsea",250,51.489932,-0.162727,19.0,Victoria_diatance,1445.7077015246823,Battersea Park Albert Gate_diatance,1165.4071656891472,Cadogan Pier_diatance,828.5205065307291,14837.0
"Brushfield Street, Liverpool Street",251,51.518908,-0.079249,92.0,Liverpool Street_diatance,188.95527798703702,Lincoln's Inn Fields South_distance,2581.603237501149,Tower Millennium Pier_diatance,1294.1127010883874,16990.0
"Jubilee Gardens, South Bank",252,51.5046364,-0.116542278,289.0,Waterloo_diatance,287.5793420921942,Geraldine Mary Harmsworth Park North_diatance,997.7307698324092,Festival Pier_diatance,276.9054872955781,6252.0
"Shoreditch Park, Hoxton",253,51.53404294,-0.086379717,134.0,Liverpool Street_diatance,1755.8619272053013,Victoria Park St Agnes Gate_diatance,2443.2759620660536,Blackfriars Pier_diatance,2792.675506720214,11282.0
"Chadwell Street, Angel",254,51.53051587,-0.106408455,30.0,Kings Cross_diatance,1187.0675316409006,Lincoln's Inn Fields South_distance,1786.6412415480047,Blackfriars Pier_diatance,2244.441347814809,14646.0
"Clifton Road, Maida Vale",255,51.52557531,-0.179592915,81.0,Paddington_diatance,960.6527035323858,The Regent's Park Hanover Gate_distance,1014.7332474704298,Embankment Pier_diatance,4530.61160455143,27130.0
"Houghton Street, Strand",256,51.51362054,-0.116764211,10.0,Charing Cross_diatance,809.5868454485781,Lincoln's Inn Fields South_distance,228.6112516320817,Festival Pier_diatance,739.5082367843186,2977.0
"Westminster University, Marylebone",257,51.52248185,-0.154907218,39.0,Marylebone_diatance,564.1092420421205,The Regent's Park York Gate_distance,265.89274077839747,Embankment Pier_diatance,2892.8814373927953,23675.0
"Kensington Gore, Knightsbridge",258,51.50143293,-0.178656971,5.0,Paddington_diatance,1746.3369915939816,Kensington Gardens Albert Memorial Gate_diatance,81.85101996676728,Cadogan Pier_diatance,2236.2604642705237,4109.0
"Bourne Street, Belgravia",259,51.490959,-0.1532331,64.0,Victoria_diatance,856.9086091896855,Battersea Park Sopwith Way_diatance,1094.465049751536,Battersea Power Station Pier_diatance,931.3016489621847,13792.0
"Broadwick Street, Soho",260,51.5136846,-0.135580879,47.0,Charing Cross_diatance,1104.0643457028339,St. James's Park Waterloo Place Gate_distance,948.1851374489304,Embankment Pier_diatance,1236.1291068210119,14540.0
"Princes Square, Bayswater",261,51.5134891,-0.191351186,26.0,Paddington_diatance,1077.5795033624352,Kensington Gardens Black Lion Gate_diatance,449.44880862719145,Cadogan Pier_diatance,3822.3008079748083,22058.0
"LSBU (Borough Road), Elephant & Castle",262,51.49874469,-0.103132904,66.0,Waterloo East_diatance,766.2675822971595,Geraldine Mary Harmsworth Park East_diatance,363.1460420742656,Bankside Pier_diatance,1198.0085751157328,18013.0
"St. Mary Axe, Aldgate",263,51.51422502,-0.080660083,11.0,Fenchurch Street_diatance,354.0477291304819,Lincoln's Inn Fields South_distance,2463.5320766175546,Tower Millennium Pier_diatance,782.7869924150925,1021.0
"Tysoe Street, Clerkenwell",264,51.52644342,-0.109256828,40.0,Kings Cross_diatance,1175.7576548301763,Lincoln's Inn Fields South_distance,1292.9578326495468,Blackfriars Pier_diatance,1851.1620371927356,10332.0
"Southwick Street, Paddington",265,51.51595344,-0.169249375,52.0,Paddington_diatance,544.5232374152837,Hyde Park Victoria Gate_diatance,500.12468206571003,Embankment Pier_diatance,3462.694932576479,24494.0
"Queen's Gate (North), Kensington",266,51.50102668,-0.180246101,90.0,Paddington_diatance,1802.2113595417961,Kensington Gardens Queen Gate_diatance,69.03253519985469,Cadogan Pier_diatance,2239.5051651970207,14798.0
"Regency Street, Westminster",267,51.49206037,-0.132224622,44.0,Vauxhall_diatance,941.2974286089229,St. James's Park Queen Anne's Gate_distance,991.4133625749243,Millbank Millennium Pier_diatance,522.0826067433721,24216.0
"Empire Square, The Borough",269,51.50082346,-0.089740764,82.0,London Bridge_diatance,592.4121289007225,Geraldine Mary Harmsworth Park East_diatance,1248.3382975276184,London Bridge City Pier_diatance,765.0739979594123,19495.0
"Kennington Lane Rail Bridge, Vauxhall",270,51.4863434,-0.122492418,54.0,Vauxhall_diatance,56.809566501008675,Geraldine Mary Harmsworth Park West_diatance,1309.0683527047374,St. George Wharf_diatance,330.142519866561,11597.0
"London Zoo,  The Regent's Park",271,51.53583617,-0.156285395,170.0,Marylebone_diatance,1490.4240948200973,The Regent's Park Monkey Gate_distance,196.78067044113718,Embankment Pier_diatance,4018.0029710105555,5024.0
"Baylis Road, Waterloo",272,51.50144456,-0.110699309,68.0,Waterloo_diatance,252.67458579015124,Geraldine Mary Harmsworth Park North_diatance,498.62498294320864,London Eye - Waterloo Pier_diatance,711.8400095743142,6252.0
"Belvedere Road 1, South Bank",273,51.50613324,-0.114686385,87.0,Waterloo_diatance,352.62197315781384,Lincoln's Inn Fields South_distance,1062.753630970061,Festival Pier_diatance,235.9071942495481,6252.0
"Warwick Road, Olympia",274,51.49671237,-0.20528437,97.0,Paddington_diatance,2999.7469190692827,Holland Park Abbotsbury Gate_diatance,449.2466186043668,Chelsea Harbour Pier_diatance,3077.9416052572737,16405.0
"Barbican Centre, Barbican",275,51.52004497,-0.092176447,25.0,Liverpool Street_diatance,731.4985580920377,Lincoln's Inn Fields South_distance,1731.9927685889788,Blackfriars Pier_diatance,1210.9761623688219,7347.0
"Kensington Church Street, Kensington",277,51.50315739,-0.191496313,68.0,Paddington_diatance,1850.3940875869641,Kensington Gardens Studio Gate_diatance,245.43272564700592,Cadogan Pier_diatance,2851.9027371576226,7318.0
"Tooley Street, Bermondsey",278,51.5034938,-0.07962099,269.0,London Bridge_diatance,429.12345621177593,Geraldine Mary Harmsworth Park East_diatance,2008.7564063978616,Tower Millennium Pier_diatance,423.13446698332797,9193.0
"North Wharf Road, Paddington",279,51.51862243,-0.176645823,47.0,Paddington_diatance,170.19762480746294,Kensington Gardens Marlborough Gate_diatance,798.2680182678475,Embankment Pier_diatance,4040.5759127280926,6897.0
"Royal Avenue 2, Chelsea",280,51.490083,-0.162418,60.0,Victoria_diatance,1418.7343112357357,Battersea Park Albert Gate_diatance,1185.3621102834572,Cadogan Pier_diatance,851.1615835886495,14837.0
"Smith Square, Westminster",281,51.49580589,-0.127575233,33.0,Vauxhall_diatance,1148.0599698089336,St. James's Park Storey's Gate_distance,648.7304970977798,Millbank Millennium Pier_diatance,490.30636769603706,6973.0
"Royal London Hospital, Whitechapel",282,51.518675,-0.06111,47.0,Fenchurch Street_diatance,1438.5118470937748,Mile End Park Solebay Street_diatance,1778.154127779859,Tower Bridge Quay_diatance,1652.9481597703827,10945.0
"Kingsway, Covent Garden",283,51.51440928,-0.118478757,5.0,Charing Cross_diatance,832.1816762259704,Lincoln's Inn Fields West_distance,173.53484614360835,Festival Pier_diatance,825.103244672594,2977.0
"Lambeth North Station, Waterloo",284,51.49914063,-0.112031483,42.0,Waterloo_diatance,447.62999429054673,Geraldine Mary Harmsworth Park North_diatance,325.3588357401586,London Eye - Waterloo Pier_diatance,754.6347390945667,6252.0
"St. John's Wood Road, St. John's Wood",286,51.5272947,-0.174653609,51.0,Marylebone_diatance,931.4239697931573,The Regent's Park Hanover Gate_distance,635.16177213902,Embankment Pier_diatance,4326.031094234081,33719.0
"Bedford Way, Bloomsbury",287,51.52367314,-0.128377673,29.0,Euston_diatance,701.3056826439283,Lincoln's Inn Fields West_distance,1122.556099903487,Embankment Pier_diatance,1919.3566183299524,5482.0
"Elizabeth Bridge, Victoria",288,51.49236962,-0.147478734,53.0,Victoria_diatance,505.631523210483,St. James's Park Buckingham Gate_distance,1098.4547294598615,Battersea Power Station Pier_diatance,945.5797394816606,6936.0
"South Audley Street, Mayfair",289,51.50923022,-0.151296092,13.0,Victoria_diatance,1474.637553155788,Hyde Park Park Lane_diatance,500.1557317730928,Embankment Pier_diatance,2088.539276403574,9898.0
"St Mary's Hospital, Paddington",290,51.518268,-0.17110323,77.0,Paddington_diatance,421.6022303433667,Hyde Park Victoria Gate_diatance,715.6981821201518,Embankment Pier_diatance,3665.633405529258,29198.0
"Claverton Street, Pimlico",291,51.48483991,-0.138089062,43.0,Vauxhall_diatance,1058.3165825088724,Battersea Park Sopwith Way_diatance,868.1394841182539,Battersea Power Station Pier_diatance,553.5335738578603,20587.0
"Montpelier Street, Knightsbridge",292,51.49888404,-0.165471605,67.0,Victoria_diatance,1453.3324282670385,Hyde Park Albert Gate_diatance,632.5432494186545,Cadogan Pier_diatance,1785.738820594379,891.0
"Kensington Olympia Station, Olympia",293,51.49815779,-0.209494128,28.0,Paddington_diatance,3086.2684681929,Holland Park Abbotsbury Gate_diatance,405.9169352240019,Chelsea Harbour Pier_diatance,3380.125038201428,17233.0
"St. George's Square, Pimlico",294,51.488226,-0.135635511,85.0,Vauxhall_diatance,918.9560136488645,Battersea Park Sopwith Way_diatance,1214.900622736537,St. George Wharf_diatance,617.6223188271342,20587.0
"Swan Street, The Borough",295,51.50029631,-0.092762704,31.0,London Bridge_diatance,768.6811790956814,Geraldine Mary Harmsworth Park East_diatance,1034.7956077956674,London Bridge City Pier_diatance,927.2452763227294,36858.0
"Knaresborough Place, Earl's Court",296,51.49363156,-0.190603326,52.0,Paddington_diatance,2776.5805666519886,Kensington Gardens Palace Gate_diatance,1016.0400068848543,Cadogan Pier_diatance,2063.314832833589,19718.0
"Geraldine Street, Elephant & Castle",297,51.49612799,-0.106000855,18.0,Waterloo_diatance,921.6024504972996,Geraldine Mary Harmsworth Park East_diatance,11.445816019555206,London Eye - Waterloo Pier_diatance,1289.874692035446,8733.0
"Curlew Street, Shad Thames",298,51.50227992,-0.074189225,182.0,London Bridge_diatance,826.4862834460134,Geraldine Mary Harmsworth Park East_diatance,2312.2101704481383,Tower Bridge Quay_diatance,413.18519596618006,40648.0
"Vincent Square, Westminster",299,51.49398524,-0.136928582,15.0,Victoria_diatance,617.6339646190595,St. James's Park Buckingham Gate_distance,730.5975716264628,Millbank Millennium Pier_diatance,881.665976426596,24216.0
"Serpentine Car Park, Hyde Park",300,51.505014,-0.17306032,295.0,Paddington_diatance,1369.919475888288,Serpentine Bridge South_diatance,53.870662702974755,Cadogan Pier_diatance,2509.4254316448923,891.0
"Marylebone Lane, Marylebone",301,51.51475963,-0.148105415,89.0,Marylebone_diatance,1386.4279330198326,Hyde Park Marble Arch_diatance,788.4816461776115,Embankment Pier_diatance,2044.6720818119313,7737.0
"Putney Pier, Wandsworth",302,51.466907,-0.216573,108.0,Clapham Junction_diatance,3217.55078458013,Battersea Park Sun Gate_diatance,3797.37358072781,Putney Pier_diatance,94.1175765244161,17661.0
"Albert Gate, Hyde Park",303,51.50295379,-0.158456089,489.0,Victoria_diatance,1180.1355726933862,Hyde Park Albert Gate_diatance,42.570345522849706,Battersea Power Station Pier_diatance,2286.8720027500167,5287.0
"Rathbone Street, Fitzrovia",306,51.51816295,-0.135025698,47.0,Euston_diatance,1172.230861998784,The Regent's Park St. Andrew's Gate_distance,1099.2369958761253,Embankment Pier_diatance,1563.4592199638985,10317.0
"Black Lion Gate, Kensington Gardens",307,51.50990837,-0.187842717,644.0,Paddington_diatance,1101.3093143609372,Kensington Gardens Black Lion Gate_diatance,22.160218405911383,Cadogan Pier_diatance,3357.564356602682,7324.0
"Long Lane , Bermondsey",308,51.49907558,-0.085666316,65.0,London Bridge_diatance,693.2330575841708,Geraldine Mary Harmsworth Park East_diatance,1450.952695114753,London Bridge City Pier_diatance,875.9893258265541,25147.0
"Embankment (Savoy), Strand",309,51.50963123,-0.119047563,50.0,Charing Cross_diatance,367.17519960312984,Lincoln's Inn Fields South_distance,697.3620281986572,Festival Pier_diatance,305.0007295498804,2977.0
"Black Prince Road, Vauxhall",310,51.4908679,-0.116911864,61.0,Vauxhall_diatance,690.6885966882833,Geraldine Mary Harmsworth Park West_diatance,674.8512920381305,Millbank Millennium Pier_diatance,548.4159916504974,19457.0
"Foley Street, Fitzrovia",311,51.51918144,-0.140485596,42.0,Euston_diatance,1136.5425831234686,The Regent's Park St. Andrew's Gate_distance,782.9385107344195,Embankment Pier_diatance,1896.7146900848227,10022.0
"Grove End Road, St. John's Wood",312,51.53088935,-0.176770502,92.0,Marylebone_diatance,1287.5197452099044,The Regent's Park Hanover Gate_distance,817.7089412942768,Embankment Pier_diatance,4667.055814977746,29960.0
"Wells Street, Fitzrovia",313,51.51734403,-0.138072691,31.0,Euston_diatance,1286.6913956137944,The Regent's Park St. Andrew's Gate_distance,1043.4581543226832,Embankment Pier_diatance,1634.0635473191887,10022.0
"Tyers Gate, Bermondsey",314,51.50088934,-0.083159352,36.0,London Bridge_diatance,508.50480684489617,Geraldine Mary Harmsworth Park East_diatance,1674.0009112817247,London Bridge City Pier_diatance,679.2010573696817,23957.0
"The Tennis Courts, The Regent's Park",315,51.52536703,-0.153463612,211.0,Marylebone_diatance,706.2801180358703,The Regent's Park York Gate_distance,85.5994492181904,Embankment Pier_diatance,3020.500207562003,3413.0
"Warwick Row, Westminster",316,51.497998,-0.14296064,66.0,Victoria_diatance,200.9415613690371,St. James's Park Buckingham Gate_distance,417.93159291901213,Westminster Pier_diatance,1433.4424345318675,3982.0
"Dickens Square, Borough",317,51.49679128,-0.093913472,35.0,London Bridge_diatance,1125.756156996667,Geraldine Mary Harmsworth Park East_diatance,844.2389956065311,London Bridge City Pier_diatance,1297.0667579472195,18534.0
"Sackville Street, Mayfair",318,51.51004801,-0.138846453,24.0,Charing Cross_diatance,1125.9954004423275,Green Park Devonshire Gates_diatance,633.5015676444058,Embankment Pier_diatance,1259.0162069052444,2938.0
"Baldwin Street, St. Luke's",319,51.52702563,-0.088542771,43.0,Liverpool Street_diatance,1053.5351042444338,Lincoln's Inn Fields South_distance,2293.460219814622,Blackfriars Pier_diatance,2015.9836084823314,22967.0
"Queen Mother Sports Centre, Victoria",320,51.49357351,-0.139956043,56.0,Victoria_diatance,475.0827836678513,St. James's Park Buckingham Gate_distance,776.0136786418137,Millbank Millennium Pier_diatance,1075.1040355035293,23108.0
"Bermondsey Street, Bermondsey",321,51.49785559,-0.081608045,165.0,London Bridge_diatance,862.3472285429482,Geraldine Mary Harmsworth Park East_diatance,1703.9557932182997,London Bridge City Pier_diatance,1030.3615097723396,22671.0
"Palissy Street, Shoreditch",322,51.526293,-0.073955,55.0,Liverpool Street_diatance,1026.1823441139927,Victoria Park Bonner Gate_diatance,1918.9355573128566,Tower Millennium Pier_diatance,2142.447251535351,19435.0
"Clifton Street, Shoreditch",323,51.523196,-0.083067,19.0,Liverpool Street_diatance,528.3771671269842,Lincoln's Inn Fields South_distance,2440.6590931406167,Tower Millennium Pier_diatance,1794.1056585091862,6784.0
"Ontario Street, Elephant & Castle",324,51.49652013,-0.101384068,47.0,Waterloo East_diatance,1036.5209254341446,Geraldine Mary Harmsworth Park East_diatance,327.40049480220273,Bankside Pier_diatance,1398.7317844010188,12715.0
"St. Martin's Street, West End",325,51.50908747,-0.129697889,28.0,Charing Cross_diatance,489.5569351252359,St. James's Park Waterloo Place Gate_distance,401.9353646051965,Embankment Pier_diatance,624.4471095747408,5614.0
"Graham Street, Angel",326,51.53266186,-0.099981142,107.0,Kings Cross_diatance,1613.2526663040708,Lincoln's Inn Fields South_distance,2199.457570251952,Blackfriars Pier_diatance,2451.892088898385,14759.0
"New North Road 1, Hoxton",327,51.53095,-0.085603,10.0,Liverpool Street_diatance,1407.8812550371688,Victoria Park St Agnes Gate_diatance,2451.932821112045,Blackfriars Pier_diatance,2497.4114621724434,20774.0
"New North Road 2, Hoxton",328,51.53114,-0.086016,11.0,Liverpool Street_diatance,1434.0597143126056,Victoria Park St Agnes Gate_diatance,2474.5145145685783,Blackfriars Pier_diatance,2504.6325460896164,20774.0
"Prince Albert Road, The Regent's Park",329,51.53589283,-0.160854428,134.0,Marylebone_diatance,1430.2198683731153,The Regent's Park Monkey Gate_distance,171.4658182601065,Embankment Pier_diatance,4220.6098595035355,3413.0
"Eastbourne Mews, Paddington",330,51.51641749,-0.179135079,38.0,Paddington_diatance,172.27338680367637,Kensington Gardens Marlborough Gate_diatance,595.1013380739362,Cadogan Pier_diatance,3837.445010814089,14124.0
"Bunhill Row, Moorgate",331,51.52085887,-0.089887855,31.0,Liverpool Street_diatance,611.7665075342953,Lincoln's Inn Fields South_distance,1909.9119323001041,Blackfriars Pier_diatance,1371.7042981900229,7965.0
"Nevern Place, Earl's Court",332,51.49334336,-0.194757949,45.0,Paddington_diatance,2916.4748937042846,Holland Park Ilchester Gate_diatance,998.47050007832,Cadogan Pier_diatance,2286.8145737375735,25323.0
"Palace Gardens Terrace, Notting Hill",333,51.50860544,-0.193764092,57.0,Paddington_diatance,1501.3638445414488,Kensington Gardens Black Lion Gate_diatance,445.3245593843641,Cadogan Pier_diatance,3436.3958160554257,7324.0
"Concert Hall Approach 1, South Bank",334,51.505044,-0.115851,50.0,Waterloo_diatance,283.5382156274607,Geraldine Mary Harmsworth Park North_diatance,1011.1171272290646,Festival Pier_diatance,255.9156218562857,17685.0
"Tavistock Street, Covent Garden",335,51.51196803,-0.120718759,25.0,Charing Cross_diatance,523.4404397514627,Lincoln's Inn Fields West_distance,480.8127733140189,Embankment Pier_diatance,556.5760003216014,2977.0
"Concert Hall Approach 2, South Bank",336,51.504942,-0.115533,63.0,Waterloo_diatance,260.8189418903203,Geraldine Mary Harmsworth Park North_diatance,990.4056134255067,Festival Pier_diatance,277.4347668593826,17685.0
"Pembridge Villas, Notting Hill",337,51.51108452,-0.197524944,38.0,Paddington_diatance,1576.195206404068,Kensington Gardens Black Lion Gate_diatance,681.8962004084194,Cadogan Pier_diatance,3810.4821474821383,17672.0
"Wellington Street , Strand",338,51.51175646,-0.119643424,50.0,Charing Cross_diatance,530.3147764873748,Lincoln's Inn Fields West_distance,479.14770245404765,Festival Pier_diatance,543.9979727559518,2977.0
"Risinghill Street, Angel",339,51.5333196,-0.1117812,14.0,Kings Cross_diatance,803.2965248758342,Lincoln's Inn Fields West_distance,1979.6507032402087,Blackfriars Pier_diatance,2633.140502903275,22228.0
"Bank of England Museum, Bank",340,51.51444134,-0.087587447,18.0,Cannon Street_diatance,543.6273578907783,Lincoln's Inn Fields South_distance,1983.6244655857706,London Bridge City Pier_diatance,860.0270162134035,1021.0
"Craven Street, Strand",341,51.50810309,-0.12602103,102.0,Charing Cross_diatance,212.99287850022074,St. James's Park Waterloo Place Gate_distance,455.1589735492425,Embankment Pier_diatance,347.5485497386306,1810.0
"London Zoo Car Park, The Regent's Park",343,51.53692216,-0.150181444,125.0,Euston_diatance,1418.604835308588,The Regent's Park St. Mark's Gate_distance,149.7348153511616,Embankment Pier_diatance,3881.9848413975915,10443.0
"Goswell Road (City Uni), Finsbury",344,51.528246,-0.10102611,37.0,Kings Cross_diatance,1608.5296119339855,Lincoln's Inn Fields South_distance,1750.3473587551214,Blackfriars Pier_diatance,1959.974549292035,20244.0
"Flood Street, Chelsea",345,51.48802358,-0.166878535,66.0,Victoria_diatance,1801.6393916273066,Battersea Park Albert Gate_diatance,946.7658895722641,Cadogan Pier_diatance,578.1158324226545,20725.0
"Lower Marsh, Waterloo",347,51.50013942,-0.113936001,32.0,Waterloo_diatance,333.1200328390595,Geraldine Mary Harmsworth Park North_diatance,497.63199076677597,London Eye - Waterloo Pier_diatance,582.281581962494,6252.0
"Grosvenor Square, Mayfair",348,51.51217033,-0.150481272,41.0,Marylebone_diatance,1492.4288032578988,Hyde Park Park Lane_diatance,539.4034216926168,Embankment Pier_diatance,2098.0302292160013,9898.0
"St. George Street, Mayfair",349,51.51196,-0.142783033,8.0,Charing Cross_diatance,1449.646341457347,Green Park Devonshire Gates_diatance,713.9834874179437,Embankment Pier_diatance,1584.279576934503,2938.0
"Queen's Gate, Kensington Gardens",350,51.5017154373867,-0.1798541843891,181.0,Paddington_diatance,1722.8587106560506,Kensington Gardens Queen Gate_diatance,28.413354335649366,Cadogan Pier_diatance,2297.756732485917,4109.0
"Macclesfield Rd, St Lukes",351,51.529423,-0.097122,38.0,Liverpool Street_diatance,1607.5669230587405,Lincoln's Inn Fields South_distance,2021.6903566572691,Blackfriars Pier_diatance,2107.4968528446216,22930.0
"Vauxhall Street, Vauxhall",352,51.486965,-0.116625,85.0,Vauxhall_diatance,450.3371038280109,Geraldine Mary Harmsworth Park West_diatance,1039.8345169601344,St. George Wharf_diatance,739.9310624173434,11597.0
"Greycoat Street , Westminster",353,51.49459148,-0.134234258,26.0,Victoria_diatance,764.7735437012008,St. James's Park Queen Anne's Gate_distance,704.055334079501,Millbank Millennium Pier_diatance,730.6648769936435,15046.0
"Northumberland Avenue, Strand",354,51.506767,-0.123702,43.0,Charing Cross_diatance,91.5375017375123,St. James's Park Waterloo Place Gate_distance,536.5706465155976,Embankment Pier_diatance,165.39321077553598,1810.0
"Clapham Common Station, Clapham Common",355,51.461388,-0.13922146,0.0,Clapham Junction_diatance,2178.91607162183,Battersea Park Rosery Gate_diatance,1979.7830775117222,Battersea Power Station Pier_diatance,2548.3138246630215,13133.0
"South Kensington Station, South Kensington",356,51.494412,-0.173881,111.0,Victoria_diatance,2027.8466908616463,Hyde Park Alexandra Gate_diatance,831.5670331713429,Cadogan Pier_diatance,1388.521488957537,8106.0
"Howland Street, Fitzrovia",357,51.520994,-0.139016,55.0,Euston_diatance,912.0498579983198,The Regent's Park St. Andrew's Gate_distance,680.9545730768139,Embankment Pier_diatance,1981.3923556179357,19918.0
"High Holborn , Covent Garden",358,51.516226,-0.124826,13.0,Charing Cross_diatance,977.6110979704048,Lincoln's Inn Fields West_distance,476.4369974739517,Embankment Pier_diatance,1056.3721381691757,14797.0
"Butler Place, Westminster",359,51.49782999,-0.135440826,18.0,Victoria_diatance,662.1645850666791,St. James's Park Queen Anne's Gate_distance,360.65383270981977,Westminster Pier_diatance,955.7533695387523,3982.0
"Howick Place, Westminster",360,51.49675303,-0.138733562,79.0,Victoria_diatance,420.29690667086254,St. James's Park Buckingham Gate_distance,415.8237883625985,Millbank Millennium Pier_diatance,1118.207333013741,21065.0
"Waterloo Station 2, Waterloo",361,51.50391973,-0.11342629,34.0,Waterloo_diatance,92.48572404252161,Geraldine Mary Harmsworth Park North_diatance,823.3084243377896,Festival Pier_diatance,457.05000103132863,6252.0
"Royal College Street, Camden Town",362,51.536264,-0.133952,64.0,St Pancras_diatance,766.4825677313352,The Regent's Park Chester Gate_distance,1264.8590285562827,Embankment Pier_diatance,3371.468351651136,26038.0
"Lord's, St. John's Wood",363,51.5291212008901,-0.171185284853,11.0,Marylebone_diatance,876.8818958820025,The Regent's Park Hanover Gate_distance,391.421062423089,Embankment Pier_diatance,4237.902425284425,6376.0
"Store Street, Bloomsbury",364,51.519572,-0.13214036,28.0,Euston_diatance,1028.0318059615565,Lincoln's Inn Fields West_distance,1061.4593629544381,Embankment Pier_diatance,1587.5288559556502,12381.0
"City Road, Angel",365,51.530344,-0.100168,32.0,Kings Cross_diatance,1616.3548696301614,Lincoln's Inn Fields South_distance,1974.8205374993279,Blackfriars Pier_diatance,2193.909783132449,20950.0
"Harrowby Street, Marylebone",367,51.5173721,-0.1642075,54.0,Marylebone_diatance,642.3696281569537,Hyde Park Marble Arch_diatance,697.7334688577861,Embankment Pier_diatance,3183.9748177772262,19577.0
"Harriet Street, Knightsbridge",368,51.50024195,-0.15934065,51.0,Victoria_diatance,1084.956945013891,Hyde Park Albert Gate_diatance,265.3954766225954,Cadogan Pier_diatance,1995.8563312783658,9963.0
"Paddington Green, Paddington",370,51.520205,-0.174593,16.0,Paddington_diatance,380.3750522183492,Hyde Park Victoria Gate_diatance,939.8764891958199,Embankment Pier_diatance,3968.0236472126926,17517.0
"King Edward Walk, Waterloo",371,51.49775,-0.10988,20.0,Waterloo_diatance,637.7382401064272,Geraldine Mary Harmsworth Park North_diatance,111.83240139735176,London Eye - Waterloo Pier_diatance,968.1401789160121,9068.0
"Sardinia Street, Holborn",372,51.515208,-0.117863,11.0,Charing Cross_diatance,930.5645597394523,Lincoln's Inn Fields West_distance,81.17479531926988,Festival Pier_diatance,912.5771776830036,5611.0
"Prince Consort Road, Knightsbridge",373,51.49980661,-0.176415994,30.0,Paddington_diatance,1923.2289626749728,Kensington Gardens Albert Memorial Gate_diatance,221.88694088916978,Cadogan Pier_diatance,2011.384544828002,4109.0
"Waterloo Station 1, Waterloo",374,51.50402794,-0.11386436,60.0,Waterloo_diatance,112.9649175261964,Geraldine Mary Harmsworth Park North_diatance,846.976527580446,Festival Pier_diatance,428.21795160279396,6252.0
"Kensington Town Hall, Kensington",375,51.50194596,-0.194392952,43.0,Paddington_diatance,2074.8483587634632,Holland Park Duchess of Bedford_diatance,446.7829611864906,Cadogan Pier_diatance,2877.62595207935,11513.0
"Millbank Tower, Pimlico",376,51.49188409,-0.125674815,21.0,Vauxhall_diatance,692.5807976332369,St. James's Park Storey's Gate_distance,1103.899869683739,Millbank Millennium Pier_diatance,68.71091522298491,15964.0
"Waterloo Bridge, South Bank",377,51.50535447,-0.113656543,17.0,Waterloo_diatance,252.6693333059774,Geraldine Mary Harmsworth Park North_diatance,976.7614813774481,Festival Pier_diatance,340.0476087648567,17685.0
"Natural History Museum, South Kensington",378,51.49559291,-0.179077626,15.0,Victoria_diatance,2375.5574605261313,Kensington Gardens Queen Gate_diatance,678.1125636395705,Cadogan Pier_diatance,1669.464631644619,8081.0
"Turquoise Island, Notting Hill",379,51.51431171,-0.200838199,60.0,Paddington_diatance,1685.2086180963295,Kensington Gardens Black Lion Gate_diatance,1016.4062937451022,Cadogan Pier_diatance,4236.110659784345,20331.0
"Stanhope Gate, Mayfair",380,51.50686435,-0.150666888,21.0,Victoria_diatance,1211.4359607954873,Hyde Park Queen Elizabeth Gate_diatance,327.01418389499656,Westminster Pier_diatance,1988.5289129855582,9898.0
"Charlotte Street, Fitzrovia",381,51.51953043,-0.13577731,20.0,Euston_diatance,1023.4319627802583,The Regent's Park St. Andrew's Gate_distance,955.23118608289,Embankment Pier_diatance,1716.6818041182364,19918.0
"Farm Street, Mayfair",382,51.50935171,-0.14744969,12.0,Victoria_diatance,1429.7371998244048,Green Park Devonshire Gates_diatance,455.1573816341187,Embankment Pier_diatance,1826.4393632520969,4530.0
"Frith Street, Soho",383,51.51310333,-0.13121385,45.0,Charing Cross_diatance,838.7538625379965,St. James's Park Waterloo Place Gate_distance,834.3436739813313,Embankment Pier_diatance,965.0257216022396,10317.0
"Marloes Road, Kensington",384,51.496481,-0.192404,41.0,Paddington_diatance,2531.403758047928,Kensington Gardens Palace Gate_diatance,822.3222612885473,Cadogan Pier_diatance,2356.3170993118592,14743.0
"Moor Street, Soho",386,51.51352755,-0.130110822,87.0,Charing Cross_diatance,827.4130132419662,Lincoln's Inn Fields West_distance,882.6539339655483,Embankment Pier_diatance,948.2744631814094,10317.0
"Fire Brigade Pier, Vauxhall",387,51.49369988,-0.121394101,23.0,Vauxhall_diatance,873.5514976484313,Geraldine Mary Harmsworth Park West_diatance,765.5262542945568,Millbank Millennium Pier_diatance,313.083984086464,12443.0
"Southampton Street, Strand",388,51.51070161,-0.121723604,29.0,Charing Cross_diatance,368.5263136765853,Lincoln's Inn Fields West_distance,637.7188703752939,Embankment Pier_diatance,414.97982298824996,2977.0
"Upper Grosvenor Street, Mayfair",389,51.51013066,-0.155757901,27.0,Marylebone_diatance,1526.7101636561874,Hyde Park Park Lane_diatance,177.63660482742134,Embankment Pier_diatance,2407.8971793446194,9898.0
"Buxton Street 1, Shoreditch",390,51.521776,-0.068856,25.0,Liverpool Street_diatance,973.2549965825345,Victoria Park Bonner Gate_diatance,1916.1874874099196,Tower Millennium Pier_diatance,1755.9178084930402,14523.0
"Clifford Street, Mayfair",391,51.51066202,-0.142345694,10.0,Charing Cross_diatance,1377.556474396786,Green Park Devonshire Gates_diatance,580.2601690409327,Embankment Pier_diatance,1510.6208128410988,2938.0
"Imperial College, Knightsbridge",392,51.49942855,-0.179702476,66.0,Paddington_diatance,1974.5245057207574,Kensington Gardens Queen Gate_diatance,249.62869730763455,Cadogan Pier_diatance,2063.2799685064456,4109.0
"Snow Hill, Farringdon",393,51.51733427,-0.103604248,11.0,Blackfriars_diatance,638.9912397006199,Lincoln's Inn Fields South_distance,890.7816892110311,Blackfriars Pier_diatance,769.001224069607,2733.0
"Aberdeen Place, St. John's Wood",394,51.524826,-0.176268,42.0,Paddington_diatance,860.2041263914601,The Regent's Park Hanover Gate_distance,835.5087814596383,Embankment Pier_diatance,4288.014802388756,28154.0
"Cadogan Gardens, Chelsea",395,51.492462,-0.159919,47.0,Victoria_diatance,1143.3426586766768,Hyde Park Albert Gate_diatance,1128.4523379926036,Cadogan Pier_diatance,1159.943547418024,12691.0
"Shouldham Street, Marylebone",396,51.51809,-0.163609,50.0,Marylebone_diatance,558.6778328095382,Hyde Park Marble Arch_diatance,745.9469693572046,Embankment Pier_diatance,3175.599223287321,20291.0
"Devonshire Terrace, Bayswater",397,51.51348,-0.17977,94.0,Paddington_diatance,448.85108166692413,Kensington Gardens Lancaster Gate_diatance,296.16313111010174,Cadogan Pier_diatance,3531.6924181764543,38188.0
"Holland Park, Kensington",398,51.502319,-0.200742,61.0,Paddington_diatance,2328.9136459176643,Holland Park Duchess of Bedford_diatance,13.33063710522924,Cadogan Pier_diatance,3218.3250009981875,5099.0
"Brick Lane Market, Shoreditch",399,51.52261762,-0.071653961,56.0,Liverpool Street_diatance,843.9169145996342,Victoria Park Bonner Gate_diatance,2000.5063501489703,Tower Millennium Pier_diatance,1778.3304925936907,14523.0
"George Street, Marylebone",400,51.517703,-0.154106,26.0,Marylebone_diatance,859.549055122578,Hyde Park Marble Arch_diatance,696.618658311625,Embankment Pier_diatance,2562.2108844901386,7737.0
"Columbia Road, Shoreditch",401,51.528187,-0.075375,39.0,Liverpool Street_diatance,1167.9181960613323,Victoria Park St Agnes Gate_diatance,1902.6060450224768,Tower Millennium Pier_diatance,2338.3418324493873,21972.0
"Penfold Street, Marylebone",402,51.52289229,-0.171681991,34.0,Marylebone_diatance,601.1120809635585,The Regent's Park Hanover Gate_distance,741.433972279194,Embankment Pier_diatance,3907.5070985318052,29064.0
"George Place Mews, Marylebone",403,51.51689296,-0.158249929,59.0,Marylebone_diatance,764.4475768549327,Hyde Park Marble Arch_diatance,531.2401123936729,Embankment Pier_diatance,2782.293504030058,13849.0
"Palace Gate, Kensington Gardens",404,51.50204238,-0.184400221,246.0,Paddington_diatance,1752.9424352168141,Kensington Gardens Palace Gate_diatance,19.944538276668702,Cadogan Pier_diatance,2473.9509905827895,7318.0
"Gloucester Road Station, South Kensington",405,51.49418566,-0.18267094,70.0,Paddington_diatance,2579.074694304308,Kensington Gardens Queen Gate_diatance,846.4754469266361,Cadogan Pier_diatance,1693.341730075991,11055.0
"Sun Street, Liverpool Street",408,51.520009,-0.083935724,2.0,Liverpool Street_diatance,219.07636412622864,Lincoln's Inn Fields South_distance,2283.806052865761,London Bridge City Pier_diatance,1455.4017648532715,6784.0
"Strata, Elephant & Castle",409,51.493146,-0.099828,106.0,Waterloo East_diatance,1410.3876001402234,Geraldine Mary Harmsworth Park East_diatance,536.8047219614448,Millbank Millennium Pier_diatance,1728.4735262920683,46000.0
"Edgware Road Station, Marylebone",410,51.519968,-0.169774,95.0,Marylebone_diatance,583.9055788319613,Hyde Park Victoria Gate_diatance,916.7100053850313,Embankment Pier_diatance,3649.8914514583976,19375.0
"Rotherhithe Roundabout, Rotherhithe",411,51.499169,-0.055846029,190.0,Fenchurch Street_diatance,2065.1578790955577,Mile End Park Football Pitch_diatance,2595.662114108146,Tower Bridge Quay_diatance,1438.110128513106,13318.0
"Cleaver Street, Kennington",412,51.488105,-0.110121,23.0,Vauxhall_diatance,918.1629084845954,Geraldine Mary Harmsworth Park West_diatance,831.4553736068884,Millbank Millennium Pier_diatance,1088.672033939527,17983.0
"Chelsea Bridge, Pimlico",419,51.485821,-0.149004,48.0,Victoria_diatance,1233.4040872761232,Battersea Park Sopwith Way_diatance,490.33365261595117,Battersea Power Station Pier_diatance,299.26742677053517,22133.0
"Southwark Station 1, Southwark",420,51.504043,-0.105312,25.0,Waterloo East_diatance,331.4586017871095,Geraldine Mary Harmsworth Park North_diatance,797.8565607657596,Bankside Pier_diatance,789.7295733740315,11382.0
"Southwark Station 2, Southwark",421,51.504044,-0.104778,17.0,Waterloo East_diatance,368.4110499416623,Geraldine Mary Harmsworth Park North_diatance,809.1902800872192,Bankside Pier_diatance,762.4705522576803,11382.0
"Eaton Square (South), Belgravia",423,51.49456127,-0.15393398,42.0,Victoria_diatance,671.7287119301807,Hyde Park White Horse Gate_diatance,907.1970852450886,Battersea Power Station Pier_diatance,1306.1919220226239,10254.0
"Ebury Bridge, Pimlico",424,51.490491,-0.149186,43.0,Victoria_diatance,744.066061532167,Battersea Park Sopwith Way_diatance,1009.0743098957566,Battersea Power Station Pier_diatance,764.3846064102235,13181.0
"Vincent Street, Pimlico",426,51.493072,-0.129925,39.0,Vauxhall_diatance,934.1100751981535,St. James's Park Queen Anne's Gate_distance,913.8571059139896,Millbank Millennium Pier_diatance,389.5156329634886,40866.0
"Cheapside, Bank",427,51.51397065,-0.09294031,51.0,Cannon Street_diatance,446.9288985005017,Lincoln's Inn Fields South_distance,1619.444573499434,Bankside Pier_diatance,636.8196928098048,1021.0
"Exhibition Road, Knightsbridge",428,51.499917,-0.174554,139.0,Paddington_diatance,1917.5484249299755,Hyde Park Alexandra Gate_diatance,218.45497017234098,Cadogan Pier_diatance,1982.272282426078,4109.0
"South Parade, Chelsea",430,51.48902,-0.17524,22.0,Victoria_diatance,2269.7044275095077,Battersea Park Albert Gate_diatance,1258.0637573281783,Cadogan Pier_diatance,922.2343887538334,10752.0
"Crinan Street, King's Cross",431,51.534474,-0.122203,20.0,Kings Cross_diatance,242.78062649340788,The Regent's Park Chester Gate_distance,1807.7157476322113,Blackfriars Pier_diatance,3033.001028201796,18269.0
"Exhibition Road Museums 1, South Kensington",432,51.496468,-0.17379696,27.0,Victoria_diatance,2007.3894725138173,Hyde Park Alexandra Gate_diatance,603.7737331476425,Cadogan Pier_diatance,1600.8949674979276,8106.0
"Wren Street, Holborn",433,51.524564,-0.116279,65.0,Kings Cross_diatance,997.5481761015262,Lincoln's Inn Fields West_distance,966.4181828674846,Blackfriars Pier_diatance,1878.8672962819908,23525.0
"Kennington Station, Kennington",435,51.488852,-0.105593,32.0,Vauxhall_diatance,1242.4742579330707,Geraldine Mary Harmsworth Park East_diatance,798.687754242998,Millbank Millennium Pier_diatance,1362.0952029125408,19750.0
"Red Lion Street, Holborn",436,51.51824,-0.11655,33.0,Blackfriars_diatance,1193.4354109279907,Lincoln's Inn Fields West_distance,274.08683179879307,Festival Pier_diatance,1252.6830456152372,5611.0
"Vauxhall Walk, Vauxhall",437,51.488124,-0.120903,94.0,Vauxhall_diatance,283.32912381272536,Geraldine Mary Harmsworth Park West_diatance,1086.147369618072,Millbank Millennium Pier_diatance,483.73642016478465,11597.0
"Killick Street, King's Cross",439,51.5338,-0.118677,24.0,Kings Cross_diatance,355.6533583453131,Lincoln's Inn Fields West_distance,1987.0448354367338,Blackfriars Pier_diatance,2854.6511193454417,12099.0
"Kennington Oval, Oval",440,51.483145,-0.113134,48.0,Vauxhall_diatance,742.389012488668,Geraldine Mary Harmsworth Park West_diatance,1391.6300002538128,St. George Wharf_diatance,1039.712080438444,13236.0
"Sail Street, Vauxhall",441,51.495656,-0.114605,39.0,Waterloo_diatance,833.4290808162486,Geraldine Mary Harmsworth Park West_diatance,266.83296862440295,Millbank Millennium Pier_diatance,821.1141319909316,17675.0
"Walmer Road, Avondale",442,51.510101,-0.211358,24.0,Paddington_diatance,2508.2776275914875,Holland Park Abbotsbury Gate_diatance,1119.139534582241,Cadogan Pier_diatance,4346.567799299643,13760.0
"Philpot Street, Whitechapel",443,51.515256,-0.058641,48.0,Fenchurch Street_diatance,1426.3763405784955,Mile End Park Football Pitch_diatance,1694.0388589115546,Tower Bridge Quay_diatance,1457.884491642628,24194.0
"Bethnal Green Garden, Bethnal Green",444,51.52568,-0.055312,40.0,Liverpool Street_diatance,2005.323759376945,Victoria Park Bonner Gate_diatance,1000.0452655328771,Tower Bridge Quay_diatance,2527.664909781737,31093.0
"Cheshire Street, Bethnal Green",445,51.52388,-0.065076,27.0,Liverpool Street_diatance,1308.7507775307604,Victoria Park Bonner Gate_diatance,1565.6130761234847,Tower Bridge Quay_diatance,2075.1533297314663,14523.0
"York Hall, Bethnal Green",446,51.528936,-0.055894,36.0,Liverpool Street_diatance,2140.9710140438665,Victoria Park Bonner Gate_diatance,719.9003420363327,Tower Bridge Quay_diatance,2829.670542135196,18194.0
"Jubilee Crescent, Cubitt Town",447,51.493381,-0.007542,32.0,Fenchurch Street_diatance,5291.637062522654,Mile End Park Pavilion_diatance,2961.4647446254385,Greenwich Pier_diatance,1044.3763936739126,22503.0
"Fisherman's Walk West, Canary Wharf",448,51.50623,-0.02296,130.0,Fenchurch Street_diatance,3872.8244833209114,Mile End Park Pavilion_diatance,1202.7846840935952,Canary Wharf Pier_diatance,417.7637524643944,4318.0
"Shadwell Station, Shadwell",449,51.511088,-0.057159,57.0,Fenchurch Street_diatance,1463.4401489911552,Mile End Park Football Pitch_diatance,1756.3438491639604,Tower Bridge Quay_diatance,1266.9399744962327,16614.0
"Jubilee Street, Stepney",450,51.515975,-0.053177,50.0,Fenchurch Street_diatance,1811.404767959653,Mile End Park Football Pitch_diatance,1307.5895892279223,Tower Bridge Quay_diatance,1793.9801330441562,22207.0
"Hermitage Court, Wapping",451,51.504719,-0.063531,38.0,Fenchurch Street_diatance,1263.5873928185877,Mile End Park Football Pitch_diatance,2512.177935383077,Tower Bridge Quay_diatance,705.0126181541588,13767.0
"St. Katharine's Way, Tower",452,51.505697,-0.070542,63.0,Fenchurch Street_diatance,830.9113045493647,Geraldine Mary Harmsworth Park East_diatance,2682.475662660958,Tower Bridge Quay_diatance,208.1164540597565,7364.0
"Garnet Street, Shadwell",453,51.508447,-0.055167,50.0,Fenchurch Street_diatance,1634.2555502555188,Mile End Park Football Pitch_diatance,1800.6887337042465,Tower Bridge Quay_diatance,1299.421569948351,17201.0
"Napier Avenue, Millwall",454,51.487679,-0.021582,72.0,Fenchurch Street_diatance,4729.838722835358,Mile End Park Pavilion_diatance,3225.6970675446737,Masthouse Terrace Pier_diatance,61.75663135827869,31597.0
"East Ferry Road, Cubitt Town",455,51.49447,-0.014409,33.0,Fenchurch Street_diatance,4806.295834503756,Mile End Park Pavilion_diatance,2637.4756061892385,Masthouse Terrace Pier_diatance,958.0180615685539,15821.0
"Parkway, Camden Town",456,51.538071,-0.144664,29.0,Euston_diatance,1256.9992402187552,The Regent's Park St. Mark's Gate_distance,552.1274164443462,Embankment Pier_diatance,3815.6019954338117,12410.0
"Castlehaven Road, Camden Town",457,51.542138,-0.145393,98.0,Euston_diatance,1673.441335397167,The Regent's Park St. Mark's Gate_distance,783.9831250466556,Embankment Pier_diatance,4249.183016944323,10028.0
"Wapping Lane, Wapping",458,51.504749,-0.057544,65.0,Fenchurch Street_diatance,1615.6843139199784,Mile End Park Football Pitch_diatance,2195.312722635746,Tower Bridge Quay_diatance,1113.8145415148124,20699.0
"Gunmakers Lane, Old Ford",459,51.535179,-0.03338,127.0,Stratford International_diatance,2014.4137564791658,Victoria Park Gunmaker's Gate_distance,118.702421073382,Canary Wharf Pier_diatance,3348.8861885666856,21816.0
"Burdett Road, Mile End",460,51.516196,-0.029138,45.0,Stratford_diatance,3337.514188815224,Mile End Park Pavilion_diatance,20.13211137002684,Canary Wharf Pier_diatance,1223.084055586793,16999.0
"Aston Street, Stepney",461,51.516,-0.038775,56.0,Fenchurch Street_diatance,2782.533222275892,Mile End Park Football Pitch_diatance,391.9038141500378,Nelson Dock Pier_diatance,1369.152275954414,20409.0
"Bonny Street, Camden Town",462,51.541603,-0.138853,87.0,St Pancras_diatance,1437.070695865694,The Regent's Park St. Mark's Gate_distance,1085.0972150274797,Embankment Pier_diatance,4036.4086220635845,16596.0
"Thurtle Road, Haggerston",463,51.534776,-0.071881,55.0,Liverpool Street_diatance,1937.992490089047,Victoria Park St Agnes Gate_diatance,1437.7620534918126,Tower Millennium Pier_diatance,3096.533854418034,22367.0
"St. Mary & St. Michael Church, Stepney",464,51.51417,-0.052099,9.0,Fenchurch Street_diatance,1839.112496319668,Mile End Park Football Pitch_diatance,1294.3906754116406,Tower Bridge Quay_diatance,1740.066544920844,28828.0
"Pitfield Street North,Hoxton",465,51.53558,-0.08249,75.0,Liverpool Street_diatance,1899.6478823542145,Victoria Park St Agnes Gate_diatance,2161.879178072597,Blackfriars Pier_diatance,3055.03888511411,30630.0
"Whiston Road, Haggerston",466,51.534464,-0.076341,36.0,Liverpool Street_diatance,1816.2963659552,Victoria Park St Agnes Gate_diatance,1748.1640828318273,Tower Millennium Pier_diatance,3028.765854565354,17077.0
"Southern Grove, Bow",467,51.523538,-0.030556,30.0,Stratford_diatance,2743.965878978446,Mile End Park Solebay Street_diatance,404.8983758173613,Canary Wharf Pier_diatance,2042.9693608651623,10078.0
"Cantrell Road, Bow",468,51.521564,-0.022694,30.0,Stratford_diatance,2596.044197566975,Mile End Park Stadium_diatance,623.7108473790987,Canary Wharf Pier_diatance,1867.560259019579,15771.0
"Lindfield Street, Poplar",469,51.513757,-0.020467,78.0,Stratford_diatance,3316.5633511333212,Mile End Park Pavilion_diatance,678.573267550324,Canary Wharf Pier_diatance,1111.4346616710038,24063.0
"Mostyn Grove, Bow",470,51.530535,-0.025492,53.0,Stratford_diatance,1952.7221069525094,Mile End Park Art Pavilion_diatance,849.8038323091766,Canary Wharf Pier_diatance,2826.318763368667,31188.0
"Hewison Street, Old Ford",471,51.533283,-0.028155,49.0,Stratford International_diatance,1857.5440695406894,Victoria Park Gunmaker's Gate_distance,527.2140867181361,Canary Wharf Pier_diatance,3123.082877910204,27799.0
"Malmesbury Road, Bow",472,51.529452,-0.027616,15.0,Stratford_diatance,2142.6943018225898,Mile End Park Art Pavilion_diatance,669.023298128412,Canary Wharf Pier_diatance,2697.980795592165,15873.0
"Millharbour, Millwall",473,51.496137,-0.019355,47.0,Fenchurch Street_diatance,4418.785109606843,Mile End Park Pavilion_diatance,2344.905572415726,Greenland Pier_diatance,869.2199772396306,8154.0
"Gascoyne Road, Victoria Park",474,51.541515,-0.038557746,14.0,Stratford International_diatance,2096.8700888070994,Victoria Park Queen's Gate_distance,39.722531332870965,Canary Wharf Pier_diatance,4094.6040304890657,14145.0
"Lightermans Road, Millwall",475,51.499041,-0.020157,118.0,Fenchurch Street_diatance,4252.407398215925,Mile End Park Pavilion_diatance,2020.499165829112,Canary Wharf Pier_diatance,907.641358747918,23256.0
"Stebondale Street, Cubitt Town",476,51.489096,-0.009205,65.0,Fenchurch Street_diatance,5387.5473514977875,Mile End Park Pavilion_diatance,3329.9642482554673,Greenwich Pier_diatance,560.0287227811867,5590.0
"Spindrift Avenue, Millwall",477,51.49109,-0.018716,47.0,Fenchurch Street_diatance,4702.152912405221,Mile End Park Pavilion_diatance,2896.664924782623,Masthouse Terrace Pier_diatance,479.82891600311433,16887.0
"Stepney Green Station, Stepney",478,51.521889,-0.04667,64.0,Liverpool Street_diatance,2466.5135801277847,Mile End Park Solebay Street_diatance,725.1186864559636,Nelson Dock Pier_diatance,2193.4565070518634,22245.0
"Pott Street, Bethnal Green",479,51.527152,-0.058005,45.0,Liverpool Street_diatance,1912.7490228268007,Victoria Park Bonner Gate_diatance,965.363888611801,Tower Bridge Quay_diatance,2588.1415205361504,10504.0
"Flamborough Street, Limehouse",480,51.5128711,-0.0389866,88.0,Fenchurch Street_diatance,2725.4805871835465,Mile End Park Football Pitch_diatance,687.4887875166863,Nelson Dock Pier_diatance,1058.514366679372,16814.0
"Saunders Ness Road, Cubitt Town",481,51.487129,-0.0090011,265.0,Fenchurch Street_diatance,5504.052873763186,Mile End Park Pavilion_diatance,3535.3044937053855,Greenwich Pier_diatance,342.3117118264244,13687.0
"Exhibition Road Museums 2, South Kensington",482,51.495947,-0.17368958,25.0,Victoria_diatance,2001.231467799012,Hyde Park Alexandra Gate_diatance,662.1172940261548,Cadogan Pier_diatance,1543.6897948644892,8106.0
"Albert Gardens, Stepney",483,51.51328,-0.047784,58.0,Fenchurch Street_diatance,2122.0815352933546,Mile End Park Football Pitch_diatance,1072.272761459634,Nelson Dock Pier_diatance,1480.4498597656948,24248.0
"Bromley High Street, Bow",484,51.528828,-0.013258,51.0,Stratford_diatance,1576.60150941391,Queen Elizabeth Olympic Park Thornton Bridge_diatance,1051.6592392434889,Canary Wharf Pier_diatance,2838.060774535692,16477.0
"Old Ford Road, Bethnal Green",485,51.531127,-0.048017,96.0,Liverpool Street_diatance,2732.449102591817,Victoria Park Cricketer's Gate_distance,287.950636585015,Nelson Dock Pier_diatance,3168.626545310069,13675.0
"Granby Street, Shoreditch",486,51.525645,-0.069543,49.0,Liverpool Street_diatance,1167.1068259395984,Victoria Park Bonner Gate_diatance,1686.415797171746,Tower Millennium Pier_diatance,2142.945105391819,19435.0
"Canton Street, Poplar",487,51.511811,-0.025626,43.0,Fenchurch Street_diatance,3645.4768562647196,Mile End Park Pavilion_diatance,561.058923972582,Canary Wharf Pier_diatance,766.6309176077241,21913.0
"Reardon Street, Wapping",488,51.506946,-0.058681,70.0,Fenchurch Street_diatance,1445.2699041127262,Mile End Park Football Pitch_diatance,2095.1243897019103,Tower Bridge Quay_diatance,1032.4559219593443,19496.0
"Pennington Street, Wapping",490,51.508622,-0.065006,26.0,Fenchurch Street_diatance,970.4875481788888,Mile End Park Football Pitch_diatance,2364.6323135619864,Tower Bridge Quay_diatance,658.5849613449183,11416.0
"Queen Mary's, Mile End",491,51.522507,-0.041378,45.0,Fenchurch Street_diatance,2837.6696702788763,Mile End Park Solebay Street_diatance,353.07591654888967,Nelson Dock Pier_diatance,2111.2028428446993,19362.0
"Maplin Street, Mile End",492,51.525501,-0.032267204,54.0,Stratford_diatance,2673.7566259470696,Mile End Park Art Pavilion_diatance,380.7819995474145,Canary Wharf Pier_diatance,2270.4551592772286,18473.0
"South Quay East, Canary Wharf",494,51.50196,-0.016251,14.0,Fenchurch Street_diatance,4420.85597285181,Mile End Park Pavilion_diatance,1833.6818617148815,Canary Wharf Pier_diatance,938.0081900647883,5272.0
"Bow Church Station, Bow",495,51.528169,-0.018703,76.0,Stratford_diatance,1827.7352629122552,Queen Elizabeth Olympic Park Thornton Bridge_diatance,1222.346936020776,Canary Wharf Pier_diatance,2647.329564724741,24380.0
"Devons Road, Bow",496,51.52512,-0.015578,57.0,Stratford_diatance,2018.3973328242826,Mile End Park Stadium_diatance,1239.161335234829,Canary Wharf Pier_diatance,2395.685831648392,16477.0
"Merchant Street, Bow",497,51.526578,-0.027581,28.0,Stratford_diatance,2357.096055064121,Mile End Park Art Pavilion_diatance,642.5926825008446,Canary Wharf Pier_diatance,2378.6460305018645,37079.0
"Bow Road Station, Bow",498,51.527058,-0.025296,43.0,Stratford_diatance,2209.541353189024,Mile End Park Art Pavilion_diatance,794.1346562708638,Canary Wharf Pier_diatance,2442.429289383497,11029.0
"Furze Green, Bow",499,51.519265,-0.021345,66.0,Stratford_diatance,2777.252273130445,Mile End Park Pavilion_diatance,648.7114958276853,Canary Wharf Pier_diatance,1646.182896089236,29564.0
"Ansell House, Stepney",500,51.520019,-0.05438,63.0,Liverpool Street_diatance,1911.6187927899368,Mile End Park Solebay Street_diatance,1289.8017734485802,Tower Bridge Quay_diatance,2047.753967195646,10945.0
"Cephas Street, Bethnal Green",501,51.522561,-0.054883,53.0,Liverpool Street_diatance,1923.0553986524433,Mile End Park Solebay Street_diatance,1285.6495762278644,Tower Bridge Quay_diatance,2250.580402943734,18358.0
"Bonner Gate, Victoria Park",502,51.53341,-0.049591815,336.0,Liverpool Street_diatance,2782.879884842716,Victoria Park Bonner Gate_diatance,59.03282150560728,Nelson Dock Pier_diatance,3444.6564224969416,13675.0
"Cleveland Way, Stepney",503,51.520893,-0.051394,71.0,Liverpool Street_diatance,2127.433108274135,Mile End Park Solebay Street_diatance,1066.5672605637778,Tower Bridge Quay_diatance,2257.4882862781405,16570.0
"St. John's Park, Cubitt Town",504,51.496454,-0.009506,47.0,Fenchurch Street_diatance,5043.239229793068,Mile End Park Pavilion_diatance,2598.8836136011078,Masthouse Terrace Pier_diatance,1342.288475106793,15821.0
"Ackroyd Drive, Bow",505,51.520398,-0.026768,73.0,Stratford_diatance,2856.018827783189,Mile End Park Stadium_diatance,315.1351375302268,Canary Wharf Pier_diatance,1695.6883663284068,23952.0
"Bell Lane, Liverpool Street",506,51.517475,-0.075855,56.0,Liverpool Street_diatance,433.52300559725046,Victoria Park Bonner Gate_diatance,2596.7737196801113,Tower Millennium Pier_diatance,1153.8195963650878,21817.0
"Clarkson Street, Bethnal Green",507,51.528692,-0.059091,15.0,Liverpool Street_diatance,1942.820434488908,Victoria Park Bonner Gate_diatance,899.8375474917283,Tower Bridge Quay_diatance,2716.3721408709066,18194.0
"Fournier Street, Whitechapel",508,51.519362,-0.074431,37.0,Liverpool Street_diatance,525.6064417708834,Victoria Park Bonner Gate_diatance,2381.258204900338,Tower Millennium Pier_diatance,1379.3272559086697,13062.0
