name,id,lat,lon,number,min_rail,min_rail_distance,min_park,min_park_distance,min_pier,min_pier_distance,population_density,intercept_95,min_rail_distance_95,min_park_distance_95,min_pier_distance_95,population_density_95,localR2
"River Street , Clerkenwell",1,51.52916347,-0.109970527,34.0,Kings Cross_diatance,990.0,Lincoln's Inn Fields South_distance,1564.0,Blackfriars Pier_diatance,2154.0,13116.0,0.0,0.0,0.0,0.0,0.0,0.1191151305436519
"Phillimore Gardens, Kensington",2,51.49960695,-0.197574246,39.0,Paddington_diatance,2415.0,Holland Park Duchess of Bedford_diatance,386.0,Cadogan Pier_diatance,2854.0,12893.0,0.0,0.0,0.0,0.0,0.0,0.29191524947436304
"Christopher Street, Liverpool Street",3,51.52128377,-0.084605692,4.0,Liverpool Street_diatance,362.0,Lincoln's Inn Fields South_distance,2273.0,London Bridge City Pier_diatance,1596.0,6784.0,0.0,0.0,0.0,0.0,0.0,0.04769453081263027
"St. Chad's Street, King's Cross",4,51.53005939,-0.120973687,6.0,Kings Cross_diatance,306.0,Lincoln's Inn Fields West_distance,1584.0,Embankment Pier_diatance,2567.0,26642.0,0.0,0.0,0.0,0.0,0.0,0.10532609517275389
"Broadcasting House, Marylebone",6,51.51811784,-0.144228881,17.0,Euston_diatance,1356.0,The Regent's Park St. Andrew's Gate_distance,813.0,Embankment Pier_diatance,2011.0,10022.0,0.0,0.0,0.0,0.0,0.0,-0.7018523662352448
"Charlbert Street, St. John's Wood",7,51.53430039,-0.1680743,22.0,Marylebone_diatance,1294.0,The Regent's Park Monkey Gate_distance,646.0,Embankment Pier_diatance,4437.0,5024.0,0.0,0.0,0.0,0.0,0.0,0.43655619910744614
"Maida Vale, Maida Vale",8,51.529857,-0.18348604,16.0,Paddington_diatance,1490.0,The Regent's Park Hanover Gate_distance,1245.0,Embankment Pier_diatance,4996.0,21137.0,0.0,2.3988751645798634,0.0,0.0,0.0,0.40470490548286553
"New Globe Walk, Bankside",9,51.5073853,-0.096440751,24.0,Cannon Street_diatance,472.0,Geraldine Mary Harmsworth Park North_diatance,1413.0,Bankside Pier_diatance,156.0,9531.0,0.0,0.0,0.0,0.0,0.0,0.18455102514060517
"Park Street, Bankside",10,51.50597426,-0.092754157,21.0,Cannon Street_diatance,471.0,Geraldine Mary Harmsworth Park East_diatance,1439.0,Bankside Pier_diatance,418.0,9531.0,0.0,0.0,0.0,0.0,0.0,0.1692688153405306
"Brunswick Square, Bloomsbury",11,51.52395143,-0.122502346,13.0,St Pancras_diatance,865.0,Lincoln's Inn Fields West_distance,945.0,Embankment Pier_diatance,1889.0,30478.0,0.0,0.0,0.0,0.0,0.0,0.1776431365867456
"Malet Street, Bloomsbury",12,51.52168078,-0.130431727,28.0,Euston_diatance,830.0,Lincoln's Inn Fields West_distance,1074.0,Embankment Pier_diatance,1752.0,12381.0,0.0,0.0,0.0,0.0,0.0,0.2007193005368316
"Scala Street, Fitzrovia",13,51.51991453,-0.136039674,5.0,Euston_diatance,983.0,The Regent's Park St. Andrew's Gate_distance,913.0,Embankment Pier_diatance,1762.0,19918.0,0.0,0.0,0.0,0.0,0.0,0.14969170290022574
"Belgrove Street , King's Cross",14,51.52994371,-0.123616824,46.0,St Pancras_diatance,236.0,The Regent's Park Chester Gate_distance,1565.0,Embankment Pier_diatance,2559.0,20725.0,0.0,0.0,0.0,0.0,0.0,0.12410410960098384
"Great Russell Street, Bloomsbury",15,51.51772703,-0.127854211,9.0,Charing Cross_diatance,1184.0,Lincoln's Inn Fields West_distance,713.0,Embankment Pier_diatance,1278.0,5482.0,0.0,0.0,0.0,0.0,0.0,0.45104393293152795
"Cartwright Gardens , Bloomsbury",16,51.52635795,-0.125979294,22.0,St Pancras_diatance,561.0,Lincoln's Inn Fields West_distance,1285.0,Embankment Pier_diatance,2179.0,17800.0,0.0,0.0,0.0,0.0,0.0,0.14248774135232495
"Hatton Wall, Holborn",17,51.5216612,-0.109006325,12.0,Blackfriars_diatance,1193.0,Lincoln's Inn Fields South_distance,833.0,Blackfriars Pier_diatance,1349.0,17909.0,0.0,0.0,0.0,0.0,0.0,0.2447070234754189
"Drury Lane, Covent Garden",18,51.51477076,-0.12221963,20.0,Charing Cross_diatance,811.0,Lincoln's Inn Fields West_distance,322.0,Embankment Pier_diatance,869.0,14982.0,0.0,0.0,0.0,0.0,0.0,0.7196200249259591
"Taviton Street, Bloomsbury",19,51.52505093,-0.131161087,15.0,Euston_diatance,467.0,The Regent's Park St. Andrew's Gate_distance,1022.0,Embankment Pier_diatance,2122.0,17263.0,0.0,0.0,0.0,0.0,0.0,0.1521688492569531
"Drummond Street , Euston",20,51.527326,-0.13605286,12.0,Euston_diatance,187.0,The Regent's Park Chester Gate_distance,685.0,Embankment Pier_diatance,2481.0,6943.0,0.0,0.0,0.0,0.0,0.0,0.1845691555754711
"Lansdowne Drive, Hackney Central",21,51.539834,-0.062806212,9.0,Liverpool Street_diatance,2715.0,Victoria Park St Agnes Gate_diatance,884.0,Tower Millennium Pier_diatance,3788.0,17789.0,0.0,0.0,0.0,0.0,0.0,0.2896257264672951
"Northington Street , Holborn",22,51.5222641,-0.114079481,11.0,Kings Cross_diatance,1295.0,Lincoln's Inn Fields South_distance,750.0,Blackfriars Pier_diatance,1582.0,17644.0,0.0,0.0,0.0,0.0,0.0,0.2011726989950392
"Red Lion Square, Holborn",23,51.51943538,-0.119123345,9.0,Charing Cross_diatance,1355.0,Lincoln's Inn Fields West_distance,397.0,Festival Pier_diatance,1386.0,5611.0,0.0,0.0,0.0,0.0,0.0,0.3502893115923466
"British Museum, Bloomsbury",24,51.51908011,-0.124678402,18.0,Euston_diatance,1267.0,Lincoln's Inn Fields West_distance,582.0,Embankment Pier_diatance,1365.0,5482.0,0.0,0.0,0.0,0.0,0.0,0.402911907877331
"Doric Way , Somers Town",25,51.5288338,-0.132250369,16.0,Euston_diatance,156.0,The Regent's Park Chester Gate_distance,956.0,Embankment Pier_diatance,2545.0,13495.0,0.0,0.0,0.0,0.0,0.0,0.14110946526223578
"Ampton Street , Clerkenwell",26,51.52728093,-0.11829517,15.0,Kings Cross_diatance,666.0,Lincoln's Inn Fields West_distance,1262.0,Blackfriars Pier_diatance,2208.0,33409.0,0.0,0.0,0.0,0.0,0.0,0.07401247627701106
"Bouverie Street, Temple",27,51.51382102,-0.107927706,8.0,Blackfriars_diatance,421.0,Lincoln's Inn Fields South_distance,607.0,Blackfriars Pier_diatance,600.0,2733.0,0.0,0.0,0.0,0.0,0.0,0.20748895197451184
"Bolsover Street, Fitzrovia",28,51.52351808,-0.143613641,25.0,Euston_diatance,854.0,The Regent's Park St. Andrew's Gate_distance,259.0,Embankment Pier_diatance,2400.0,26160.0,0.0,0.0,0.0,0.0,0.0,0.4891577327498464
"Hereford Road, Bayswater",29,51.513735,-0.193487,27.0,Paddington_diatance,1207.0,Kensington Gardens Black Lion Gate_diatance,564.0,Cadogan Pier_diatance,3915.0,24552.0,-3.955826180271456,0.0,-4.604221297638759,4.03872618370036,-4.411263268817352,0.4367832503393494
"Windsor Terrace, Hoxton",30,51.52915444,-0.093421615,25.0,Liverpool Street_diatance,1428.0,Lincoln's Inn Fields South_distance,2177.0,Blackfriars Pier_diatance,2126.0,24596.0,0.0,0.0,0.0,0.0,0.0,0.3995885285743956
"Fanshaw Street, Hoxton",31,51.52953709,-0.083353323,20.0,Liverpool Street_diatance,1231.0,Victoria Park St Agnes Gate_diatance,2348.0,Blackfriars Pier_diatance,2430.0,17320.0,0.0,0.0,0.0,0.0,0.0,0.2195324562815899
"Leonard Circus , Shoreditch",32,51.52469624,-0.084439283,34.0,Liverpool Street_diatance,711.0,Lincoln's Inn Fields South_distance,2416.0,Blackfriars Pier_diatance,1938.0,6784.0,0.0,0.0,0.0,0.0,0.0,0.11330817148534893
"Pancras Road, King's Cross",34,51.5341235,-0.129386874,9.0,St Pancras_diatance,379.0,The Regent's Park Chester Gate_distance,1351.0,Embankment Pier_diatance,3069.0,6945.0,0.0,0.0,0.0,0.0,0.0,0.107488191707777
"De Vere Gardens, Kensington",36,51.50173726,-0.184980612,20.0,Paddington_diatance,1797.0,Kensington Gardens Palace Gate_diatance,51.0,Cadogan Pier_diatance,2465.0,14798.0,0.0,-2.077902472398746,0.0,0.0,-2.430816808305366,0.41936879891239576
"Penywern Road, Earl's Court",37,51.49159394,-0.192369256,16.0,Paddington_diatance,3032.0,Holland Park Ilchester Gate_diatance,1253.0,Cadogan Pier_diatance,2047.0,24684.0,0.0,0.0,0.0,0.0,0.0,0.11613786073183241
"Abingdon Villas, Kensington",38,51.4973875,-0.197245586,9.0,Paddington_diatance,2605.0,Holland Park Ilchester Gate_diatance,541.0,Cadogan Pier_diatance,2681.0,14743.0,0.0,0.0,0.0,0.0,0.0,0.21116695036933447
"Shoreditch High Street, Shoreditch",39,51.5263778,-0.078130921,37.0,Liverpool Street_diatance,914.0,Victoria Park St Agnes Gate_diatance,2168.0,Tower Millennium Pier_diatance,2125.0,13333.0,0.0,0.0,0.0,0.0,0.0,0.025330158161696776
"Commercial Street, Shoreditch",40,51.52127071,-0.0755789,6.0,Liverpool Street_diatance,535.0,Victoria Park Bonner Gate_diatance,2307.0,Tower Millennium Pier_diatance,1573.0,16990.0,0.0,0.0,0.0,0.0,0.0,0.1069641699510142
"Pindar Street, Liverpool Street",41,51.520955,-0.083493552,12.0,Liverpool Street_diatance,294.0,Lincoln's Inn Fields South_distance,2338.0,Tower Millennium Pier_diatance,1554.0,6784.0,0.0,0.0,0.0,0.0,0.0,0.034663130768313045
"Wenlock Road , Hoxton",42,51.53099181,-0.093903825,29.0,Liverpool Street_diatance,1618.0,Lincoln's Inn Fields South_distance,2300.0,Blackfriars Pier_diatance,2317.0,24596.0,0.0,0.0,0.0,0.0,0.0,0.41539553090284176
"Crawford Street, Marylebone",43,51.52026,-0.157183945,18.0,Marylebone_diatance,512.0,The Regent's Park Clarence Gate_distance,503.0,Embankment Pier_diatance,2887.0,23675.0,-2.825837780759048,0.0,-2.8741747049286848,0.0,0.0,0.6720868550655564
"Bruton Street, Mayfair",44,51.51073687,-0.144165239,16.0,Charing Cross_diatance,1502.0,Green Park Devonshire Gates_diatance,567.0,Embankment Pier_diatance,1634.0,2938.0,-3.221519308485253,-2.7884453724117053,0.0,2.4914778493989194,-2.1959977904769317,0.29998648133782874
"Boston Place, Marylebone",45,51.522511,-0.162298,18.0,Marylebone_diatance,82.0,The Regent's Park Clarence Gate_distance,375.0,Embankment Pier_diatance,3319.0,20491.0,0.0,0.0,-2.2720477375953,0.0,0.0,0.6553850433336648
"Nesham Street, Wapping",46,51.507131,-0.06691,30.0,Fenchurch Street_diatance,920.0,Mile End Park Football Pitch_diatance,2560.0,Tower Bridge Quay_diatance,475.0,7364.0,0.0,0.0,0.0,0.0,0.0,0.2955796979384103
"Warwick Avenue Station, Maida Vale",47,51.52334476,-0.183846408,36.0,Paddington_diatance,844.0,The Regent's Park Hanover Gate_distance,1379.0,Cadogan Pier_diatance,4664.0,13908.0,0.0,2.991106119873327,0.0,0.0,-2.568809760249087,0.4375268968741375
"Godliman Street, St. Paul's",48,51.51248445,-0.099141408,23.0,Blackfriars_diatance,285.0,Lincoln's Inn Fields South_distance,1231.0,Blackfriars Pier_diatance,242.0,1021.0,0.0,0.0,0.0,0.0,0.0,0.22876784549272747
"Curzon Street, Mayfair",49,51.50706909,-0.145904427,8.0,Victoria_diatance,1167.0,Green Park Devonshire Gates_diatance,180.0,Westminster Pier_diatance,1683.0,4530.0,-5.500501947509548,-3.8903552549603435,-2.63187253775038,6.073010718865885,-4.121156282488159,0.3159239347726987
"East Road, Hoxton",50,51.52867339,-0.087459376,19.0,Liverpool Street_diatance,1195.0,Lincoln's Inn Fields South_distance,2460.0,Blackfriars Pier_diatance,2214.0,52750.0,0.0,0.0,0.0,0.0,0.0,0.3247777370510897
"Finsbury Library , Finsbury",51,51.52671796,-0.104298194,48.0,Kings Cross_diatance,1458.0,Lincoln's Inn Fields South_distance,1481.0,Blackfriars Pier_diatance,1805.0,30164.0,0.0,0.0,0.0,0.0,0.0,0.21258938998328925
"Roscoe Street, St. Luke's",52,51.52295439,-0.094934859,22.0,Liverpool Street_diatance,1029.0,Lincoln's Inn Fields South_distance,1680.0,Blackfriars Pier_diatance,1433.0,19126.0,0.0,0.0,0.0,0.0,0.0,0.28967062422535106
"Grafton Street, Mayfair",53,51.5099923,-0.143495266,5.0,Charing Cross_diatance,1438.0,Green Park Devonshire Gates_diatance,490.0,Embankment Pier_diatance,1570.0,2938.0,-3.024772551670094,-2.8807216410047545,0.0,2.6798637273035837,-2.015187675458714,0.29226355972334195
"Golden Lane, Barbican",54,51.52174785,-0.094475072,3.0,Liverpool Street_diatance,942.0,Lincoln's Inn Fields South_distance,1649.0,Blackfriars Pier_diatance,1316.0,32149.0,0.0,0.0,0.0,0.0,0.0,0.2594904331214513
"Finsbury Circus, Liverpool Street",55,51.51707521,-0.086685542,20.0,Liverpool Street_diatance,367.0,Lincoln's Inn Fields South_distance,2048.0,London Bridge City Pier_diatance,1137.0,1021.0,0.0,0.0,0.0,0.0,0.0,0.15542923338294148
"Paddington Street, Marylebone",56,51.52058381,-0.154701411,14.0,Marylebone_diatance,639.0,The Regent's Park York Gate_distance,461.0,Embankment Pier_diatance,2760.0,23675.0,-2.89382423131933,0.0,-2.6285037544057688,2.2336199567750383,0.0,0.6518923211069501
"Guilford Street , Bloomsbury",57,51.52334672,-0.120202614,16.0,St Pancras_diatance,984.0,Lincoln's Inn Fields West_distance,839.0,Embankment Pier_diatance,1822.0,23833.0,0.0,0.0,0.0,0.0,0.0,0.20630544778501134
"New Inn Yard, Shoreditch",58,51.52452699,-0.079248081,24.0,Liverpool Street_diatance,695.0,Victoria Park Bonner Gate_diatance,2334.0,Tower Millennium Pier_diatance,1919.0,6784.0,0.0,0.0,0.0,0.0,0.0,0.009043892901168991
"Lisson Grove, St. John's Wood",60,51.52644828,-0.172190727,6.0,Marylebone_diatance,737.0,The Regent's Park Hanover Gate_distance,502.0,Embankment Pier_diatance,4132.0,27036.0,0.0,0.0,0.0,0.0,0.0,0.2752084784146902
"Great Dover Street, The Borough",61,51.49738251,-0.089446947,15.0,London Bridge_diatance,930.0,Geraldine Mary Harmsworth Park East_diatance,1159.0,London Bridge City Pier_diatance,1112.0,36858.0,0.0,0.0,0.0,0.0,0.0,0.2439954291407981
"Cotton Garden Estate, Kennington",62,51.4907579,-0.106323685,7.0,Vauxhall_diatance,1268.0,Geraldine Mary Harmsworth Park East_diatance,586.0,Millbank Millennium Pier_diatance,1277.0,19750.0,0.0,0.0,0.0,0.0,0.0,0.16774952902766577
"Murray Grove , Hoxton",63,51.53089041,-0.089782579,28.0,Liverpool Street_diatance,1482.0,Lincoln's Inn Fields South_distance,2492.0,Blackfriars Pier_diatance,2383.0,24596.0,0.0,0.0,0.0,0.0,0.0,0.39375874744166467
"William IV Street, Strand",64,51.50946212,-0.124749274,36.0,Charing Cross_diatance,246.0,St. James's Park Waterloo Place Gate_distance,621.0,Embankment Pier_diatance,363.0,5614.0,0.0,0.0,0.0,0.0,0.0,0.7456935784068762
"Gower Place , Euston",65,51.52522753,-0.13518856,8.0,Euston_diatance,389.0,The Regent's Park St. Andrew's Gate_distance,743.0,Embankment Pier_diatance,2244.0,11192.0,0.0,0.0,0.0,0.0,0.0,0.1799726946907102
"Holborn Circus, Holborn",66,51.51795029,-0.108657431,10.0,Blackfriars_diatance,807.0,Lincoln's Inn Fields South_distance,581.0,Blackfriars Pier_diatance,974.0,31587.0,0.0,0.0,0.0,0.0,0.0,0.26100400750807307
"Hatton Garden, Holborn",67,51.51882555,-0.108028472,25.0,Blackfriars_diatance,876.0,Lincoln's Inn Fields South_distance,666.0,Blackfriars Pier_diatance,1036.0,17909.0,0.0,0.0,0.0,0.0,0.0,0.28324709623118416
"Theobald's Road , Holborn",68,51.52059681,-0.116688468,6.0,St Pancras_diatance,1366.0,Lincoln's Inn Fields West_distance,526.0,Festival Pier_diatance,1514.0,5611.0,0.0,0.0,0.0,0.0,0.0,0.2644619774774948
"Euston Road, Euston",69,51.5262363,-0.134407652,2.0,Euston_diatance,274.0,The Regent's Park St. Andrew's Gate_distance,803.0,Embankment Pier_diatance,2325.0,6943.0,0.0,0.0,0.0,0.0,0.0,0.17297556585986643
"Calshot Street , King's Cross",70,51.53136059,-0.117069978,17.0,Kings Cross_diatance,446.0,Lincoln's Inn Fields West_distance,1716.0,Blackfriars Pier_diatance,2562.0,18269.0,0.0,0.0,0.0,0.0,0.0,0.06875920735480555
"Newgate Street , St. Paul's",71,51.5154186,-0.098850915,28.0,Blackfriars_diatance,513.0,Lincoln's Inn Fields South_distance,1200.0,Blackfriars Pier_diatance,553.0,1021.0,0.0,0.0,0.0,0.0,0.0,0.24350767182104996
"Farringdon Lane, Clerkenwell",72,51.52352001,-0.108340165,10.0,Blackfriars_diatance,1376.0,Lincoln's Inn Fields South_distance,1030.0,Blackfriars Pier_diatance,1523.0,10379.0,0.0,0.0,0.0,0.0,0.0,0.19141006416060916
"Old Street Station, St. Luke's",73,51.52548,-0.089659871,22.0,Liverpool Street_diatance,944.0,Lincoln's Inn Fields South_distance,2137.0,Blackfriars Pier_diatance,1828.0,7965.0,0.0,0.0,0.0,0.0,0.0,0.31252118137291435
"Vauxhall Cross, Vauxhall",74,51.48591714,-0.124469948,34.0,Vauxhall_diatance,109.0,Geraldine Mary Harmsworth Park West_diatance,1433.0,St. George Wharf_diatance,198.0,48800.0,0.0,0.0,0.0,0.0,0.0,0.16784263247964407
"Torrens Street, Angel",75,51.53219984,-0.105480698,8.0,Kings Cross_diatance,1233.0,Lincoln's Inn Fields South_distance,1984.0,Blackfriars Pier_diatance,2420.0,18101.0,0.0,0.0,0.0,0.0,0.0,0.2759953102754512
"Longford Street, The Regent's Park",76,51.52559505,-0.144083893,32.0,Euston_diatance,748.0,The Regent's Park St. Andrew's Gate_distance,130.0,Embankment Pier_diatance,2601.0,4780.0,0.0,0.0,0.0,0.0,0.0,0.5869192511826702
"Russell Square Station, Bloomsbury",77,51.52341837,-0.124121774,21.0,St Pancras_diatance,898.0,Lincoln's Inn Fields West_distance,935.0,Embankment Pier_diatance,1838.0,30478.0,0.0,0.0,0.0,0.0,0.0,0.18313202945859108
"Sadlers Sports Centre, Finsbury",78,51.52486887,-0.099489485,13.0,Liverpool Street_diatance,1408.0,Lincoln's Inn Fields South_distance,1545.0,Blackfriars Pier_diatance,1588.0,32680.0,0.0,0.0,0.0,0.0,0.0,0.2975079213474927
"Arundel Street, Temple",79,51.511726,-0.11385596,3.0,Blackfriars_diatance,751.0,Lincoln's Inn Fields South_distance,465.0,Festival Pier_diatance,592.0,2977.0,0.0,0.0,0.0,0.0,0.0,0.40893120011772255
"Webber Street , Southwark",80,51.50069361,-0.102091246,21.0,Waterloo East_diatance,671.0,Geraldine Mary Harmsworth Park East_diatance,587.0,Bankside Pier_diatance,970.0,11382.0,0.0,0.0,0.0,0.0,0.0,0.17547306774983487
"Great Titchfield Street, Fitzrovia",81,51.52025302,-0.141327271,17.0,Euston_diatance,1051.0,The Regent's Park St. Andrew's Gate_distance,650.0,Embankment Pier_diatance,2023.0,10022.0,0.0,0.0,0.0,0.0,0.0,-0.02053603494715076
"Chancery Lane, Holborn",82,51.514274,-0.111257,16.0,Blackfriars_diatance,644.0,Lincoln's Inn Fields South_distance,374.0,Blackfriars Pier_diatance,821.0,2977.0,0.0,0.0,0.0,0.0,0.0,0.2655414781256127
"Panton Street, West End",83,51.50963938,-0.131510949,35.0,Charing Cross_diatance,629.0,St. James's Park Waterloo Place Gate_distance,450.0,Embankment Pier_diatance,764.0,5614.0,0.0,0.0,0.0,0.0,0.0,0.6137746359538756
"Breams Buildings, Holborn",84,51.51593725,-0.111778348,7.0,Blackfriars_diatance,776.0,Lincoln's Inn Fields South_distance,307.0,Blackfriars Pier_diatance,955.0,2733.0,0.0,0.0,0.0,0.0,0.0,0.23672790344438646
"Tanner Street, Bermondsey",85,51.50064702,-0.078600401,48.0,London Bridge_diatance,686.0,Geraldine Mary Harmsworth Park East_diatance,1968.0,Tower Bridge Quay_diatance,689.0,14036.0,0.0,0.0,0.0,0.0,0.0,0.2505639103417636
"Sancroft Street, Vauxhall",86,51.48947903,-0.115156562,10.0,Vauxhall_diatance,668.0,Geraldine Mary Harmsworth Park West_diatance,743.0,Millbank Millennium Pier_diatance,708.0,19457.0,0.0,0.0,0.0,0.0,0.0,0.18944990372065798
"Devonshire Square, Liverpool Street",87,51.51646835,-0.079684557,15.0,Liverpool Street_diatance,273.0,Lincoln's Inn Fields South_distance,2528.0,Tower Millennium Pier_diatance,1024.0,1021.0,0.0,0.0,0.0,0.0,0.0,0.23517767186729974
"Bayley Street , Bloomsbury",88,51.51858757,-0.132053392,22.0,Euston_diatance,1137.0,Lincoln's Inn Fields West_distance,1019.0,Embankment Pier_diatance,1489.0,12381.0,0.0,0.0,0.0,0.0,0.0,0.3039394424359079
"Tavistock Place, Bloomsbury",89,51.5262503,-0.123509611,20.0,St Pancras_diatance,600.0,Lincoln's Inn Fields West_distance,1210.0,Embankment Pier_diatance,2148.0,19753.0,0.0,0.0,0.0,0.0,0.0,0.1389552244210463
"Harrington Square 1, Camden Town",90,51.53301907,-0.139174593,7.0,Euston_diatance,579.0,The Regent's Park Chester Gate_distance,756.0,Embankment Pier_diatance,3148.0,15115.0,0.0,0.0,0.0,0.0,0.0,0.49634592017335366
"Walnut Tree Walk, Vauxhall",91,51.49368637,-0.111014912,18.0,Waterloo_diatance,1058.0,Geraldine Mary Harmsworth Park West_diatance,210.0,Millbank Millennium Pier_diatance,971.0,17675.0,0.0,0.0,0.0,0.0,0.0,0.19964068028514478
"Borough Road, Elephant & Castle",92,51.49889832,-0.100440521,14.0,Waterloo East_diatance,884.0,Geraldine Mary Harmsworth Park East_diatance,502.0,Bankside Pier_diatance,1126.0,12715.0,0.0,0.0,0.0,0.0,0.0,0.16496840442984714
"Cloudesley Road, Angel",93,51.53440868,-0.109025404,22.0,Kings Cross_diatance,1012.0,Lincoln's Inn Fields South_distance,2144.0,Blackfriars Pier_diatance,2704.0,22945.0,0.0,0.0,0.0,0.0,0.0,0.1920093618430723
"Bricklayers Arms, Borough",94,51.49506109,-0.085814489,28.0,London Bridge_diatance,1140.0,Geraldine Mary Harmsworth Park East_diatance,1405.0,London Bridge City Pier_diatance,1322.0,22671.0,0.0,0.0,0.0,0.0,0.0,0.24062977208643385
"Aldersgate Street, Barbican",95,51.5208417,-0.097340162,22.0,Blackfriars_diatance,1100.0,Lincoln's Inn Fields South_distance,1426.0,Blackfriars Pier_diatance,1164.0,13475.0,0.0,0.0,0.0,0.0,0.0,0.24734423245287976
"Falkirk Street, Hoxton",96,51.53095071,-0.078505384,5.0,Liverpool Street_diatance,1404.0,Victoria Park St Agnes Gate_diatance,1980.0,Tower Millennium Pier_diatance,2633.0,13333.0,0.0,0.0,0.0,0.0,0.0,0.12473963788791098
"Gloucester Road (North), Kensington",97,51.49792478,-0.183834706,17.0,Paddington_diatance,2186.0,Kensington Gardens Palace Gate_diatance,441.0,Cadogan Pier_diatance,2068.0,11047.0,0.0,-2.0782900203036316,0.0,0.0,0.0,0.41506866663568026
"Hampstead Road, Euston",98,51.52554222,-0.138231303,14.0,Euston_diatance,436.0,The Regent's Park St. Andrew's Gate_distance,533.0,Embankment Pier_diatance,2372.0,4780.0,0.0,0.0,0.0,0.0,0.0,0.18296586413097476
"Old Quebec Street, Marylebone",99,51.51457763,-0.158264483,81.0,Marylebone_diatance,1003.0,Hyde Park Marble Arch_diatance,274.0,Embankment Pier_diatance,2692.0,13849.0,-5.5699683618791465,0.0,-5.817090739642469,2.0257366148051115,-3.815947782479674,0.46508898298559287
"Albert Embankment, Vauxhall",100,51.49043573,-0.122806861,30.0,Vauxhall_diatance,504.0,Geraldine Mary Harmsworth Park West_diatance,1011.0,Millbank Millennium Pier_diatance,198.0,11597.0,0.0,0.0,0.0,0.0,0.0,0.41102677984396113
"Queen Street 1, Bank",101,51.51155322,-0.0929401,13.0,Cannon Street_diatance,202.0,Lincoln's Inn Fields South_distance,1672.0,Bankside Pier_diatance,409.0,1021.0,0.0,0.0,0.0,0.0,0.0,0.199212940062096
"Jewry Street, Aldgate",102,51.51340693,-0.076793375,11.0,Fenchurch Street_diatance,246.0,Lincoln's Inn Fields South_distance,2737.0,Tower Millennium Pier_diatance,697.0,1021.0,0.0,0.0,0.0,0.0,0.0,0.30834458280094923
"Vicarage Gate, Kensington",103,51.50472376,-0.192538767,7.0,Paddington_diatance,1751.0,Kensington Gardens Studio Gate_diatance,299.0,Cadogan Pier_diatance,3034.0,8796.0,1.9955646136807659,-4.036684713131803,0.0,-2.777092045153069,-3.00837031013592,0.42189838850504346
"Crosswall, Tower",104,51.51159481,-0.077121322,14.0,Fenchurch Street_diatance,84.0,Geraldine Mary Harmsworth Park East_diatance,2647.0,Tower Millennium Pier_diatance,496.0,1021.0,0.0,0.0,0.0,0.0,0.0,0.3217923154884502
"Westbourne Grove, Bayswater",105,51.51552971,-0.190240716,27.0,Paddington_diatance,939.0,Kensington Gardens Black Lion Gate_diatance,626.0,Cadogan Pier_diatance,3994.0,22058.0,-5.212866759389062,0.0,-5.871326148917854,5.109633977524212,-5.186538314567488,0.44290743404049465
"Woodstock Street, Mayfair",106,51.51410514,-0.147301667,12.0,Marylebone_diatance,1477.0,Hyde Park Marble Arch_diatance,818.0,Embankment Pier_diatance,1964.0,2938.0,-3.392742084671913,0.0,-2.3834247860496385,0.0,-2.3531645879174516,0.38032010071336836
"Finsbury Leisure Centre, St. Luke's",107,51.52600832,-0.096317627,27.0,Liverpool Street_diatance,1301.0,Lincoln's Inn Fields South_distance,1794.0,Blackfriars Pier_diatance,1741.0,19126.0,0.0,0.0,0.0,0.0,0.0,0.35388208974772684
"Abbey Orchard Street, Westminster",108,51.49812559,-0.132102166,27.0,Victoria_diatance,895.0,St. James's Park Queen Anne's Gate_distance,333.0,Westminster Pier_diatance,739.0,24957.0,0.0,0.0,0.0,0.0,0.0,0.47971653343330256
"Soho Square , Soho",109,51.51563144,-0.132328837,35.0,Charing Cross_diatance,1107.0,Lincoln's Inn Fields West_distance,995.0,Embankment Pier_diatance,1227.0,10317.0,0.0,0.0,0.0,0.0,0.0,0.4173848688282194
"Wellington Road, St. John's Wood",110,51.53304322,-0.172528678,15.0,Marylebone_diatance,1287.0,The Regent's Park Hanover Gate_distance,702.0,Embankment Pier_diatance,4577.0,12418.0,0.0,0.0,0.0,0.0,0.0,0.15444299279983834
"Park Lane , Hyde Park",111,51.5100172,-0.157275636,445.0,Marylebone_diatance,1508.0,Hyde Park Park Lane_diatance,111.0,Embankment Pier_diatance,2510.0,891.0,-9.546633839861881,-2.00571668708183,-7.891408046126949,4.235807403360871,-7.223823137774709,0.36158272629694616
"Stonecutter Street, Holborn",112,51.51580998,-0.105270275,10.0,Blackfriars_diatance,494.0,Lincoln's Inn Fields South_distance,756.0,Blackfriars Pier_diatance,650.0,2733.0,0.0,0.0,0.0,0.0,0.0,0.2970006447290835
"Gloucester Road (Central), South Kensington",113,51.49646288,-0.183289032,17.0,Paddington_diatance,2337.0,Kensington Gardens Palace Gate_diatance,606.0,Cadogan Pier_diatance,1915.0,19558.0,0.0,0.0,0.0,0.0,0.0,0.40627136835266603
"Park Road (Baker Street), The Regent's Park",114,51.52451738,-0.158963647,124.0,Marylebone_diatance,321.0,The Regent's Park Clarence Gate_distance,57.0,Embankment Pier_diatance,3253.0,3413.0,0.0,0.0,-2.384281974731935,0.0,0.0,0.6496671675224813
"Braham Street, Aldgate",115,51.51423368,-0.073537654,44.0,Fenchurch Street_diatance,456.0,Mile End Park Football Pitch_diatance,2728.0,Tower Millennium Pier_diatance,858.0,23872.0,0.0,0.0,0.0,0.0,0.0,0.27073065780861977
"Little Argyll Street, West End",116,51.51449962,-0.141423695,45.0,Charing Cross_diatance,1488.0,Green Park Devonshire Gates_diatance,1010.0,Embankment Pier_diatance,1622.0,2938.0,0.0,0.0,0.0,0.0,0.0,-1.0542604944906828
"Lollard Street, Vauxhall",117,51.49288067,-0.114934001,29.0,Vauxhall_diatance,952.0,Geraldine Mary Harmsworth Park West_diatance,416.0,Millbank Millennium Pier_diatance,687.0,12443.0,0.0,0.0,0.0,0.0,0.0,0.2661611214183172
"Rochester Row, Westminster",118,51.49582705,-0.13547809,11.0,Victoria_diatance,651.0,St. James's Park Buckingham Gate_distance,557.0,Millbank Millennium Pier_diatance,872.0,15046.0,0.0,0.0,0.0,0.0,0.0,0.195922778720924
"Bath Street, St. Luke's",119,51.52589324,-0.090847761,26.0,Liverpool Street_diatance,1029.0,Lincoln's Inn Fields South_distance,2091.0,Blackfriars Pier_diatance,1836.0,7965.0,0.0,0.0,0.0,0.0,0.0,0.3386954307869626
"The Guildhall, Guildhall",120,51.51573534,-0.093080779,35.0,Cannon Street_diatance,640.0,Lincoln's Inn Fields South_distance,1599.0,Blackfriars Pier_diatance,787.0,7347.0,0.0,0.0,0.0,0.0,0.0,0.20290052752787074
"Baker Street, Marylebone",121,51.51891348,-0.156166631,17.0,Marylebone_diatance,664.0,The Regent's Park Clarence Gate_distance,663.0,Embankment Pier_diatance,2752.0,7737.0,-3.4449603003178435,0.0,-3.220307255819371,2.511198763050754,-2.078272839172849,0.5967702333298627
"Norton Folgate, Liverpool Street",122,51.52111369,-0.078869751,17.0,Liverpool Street_diatance,358.0,Victoria Park Bonner Gate_diatance,2502.0,Tower Millennium Pier_diatance,1539.0,1021.0,0.0,0.0,0.0,0.0,0.0,0.07083620689028822
"St. John Street, Finsbury",123,51.52836014,-0.104724625,9.0,Kings Cross_diatance,1361.0,Lincoln's Inn Fields South_distance,1621.0,Blackfriars Pier_diatance,1990.0,20244.0,0.0,0.0,0.0,0.0,0.0,0.22408503140783828
"Eaton Square, Belgravia",124,51.49654462,-0.150905245,15.0,Victoria_diatance,423.0,Green Park Wellington Arch_diatance,682.0,Battersea Power Station Pier_diatance,1445.0,7876.0,0.0,0.0,-3.5968636008917705,3.4516271417840962,0.0,0.27583466340737833
"Borough High Street, The Borough",125,51.50069491,-0.094524319,21.0,London Bridge_diatance,829.0,Geraldine Mary Harmsworth Park East_diatance,952.0,Bankside Pier_diatance,912.0,10448.0,0.0,0.0,0.0,0.0,0.0,0.17993037673099288
"Museum of London, Barbican",126,51.51782144,-0.096496865,12.0,Blackfriars_diatance,825.0,Lincoln's Inn Fields South_distance,1384.0,Blackfriars Pier_diatance,858.0,13475.0,0.0,0.0,0.0,0.0,0.0,0.22251162204386032
"Wood Street, Guildhall",127,51.51700801,-0.09388536,14.0,Cannon Street_diatance,790.0,Lincoln's Inn Fields South_distance,1551.0,Blackfriars Pier_diatance,862.0,7347.0,0.0,0.0,0.0,0.0,0.0,0.18268415928103707
"Emperor's Gate, South Kensington",128,51.49536226,-0.185296516,22.0,Paddington_diatance,2486.0,Kensington Gardens Palace Gate_diatance,728.0,Cadogan Pier_diatance,1913.0,31068.0,0.0,0.0,0.0,0.0,0.0,0.3748852995523859
"Golden Square, Soho",129,51.5118973,-0.137043852,15.0,Charing Cross_diatance,1082.0,St. James's Park Waterloo Place Gate_distance,808.0,Embankment Pier_diatance,1217.0,2938.0,0.0,0.0,0.0,0.0,0.0,-0.18779760645655505
"Tower Gardens , Tower",130,51.50950627,-0.075459482,53.0,Fenchurch Street_diatance,288.0,Geraldine Mary Harmsworth Park East_diatance,2594.0,Tower Millennium Pier_diatance,344.0,7364.0,0.0,0.0,0.0,0.0,0.0,0.2966953802441493
"Eversholt Street , Camden Town",131,51.53300545,-0.136792671,11.0,Euston_diatance,504.0,The Regent's Park Chester Gate_distance,867.0,Embankment Pier_diatance,3085.0,22264.0,0.0,0.0,0.0,0.0,0.0,0.3087116622945783
"Bethnal Green Road, Shoreditch",132,51.52364804,-0.074754872,50.0,Liverpool Street_diatance,756.0,Victoria Park Bonner Gate_diatance,2110.0,Tower Millennium Pier_diatance,1843.0,14523.0,0.0,0.0,0.0,0.0,0.0,0.046571611555113704
"Derry Street, Kensington",133,51.50136494,-0.191462381,25.0,Paddington_diatance,2019.0,Kensington Gardens Studio Gate_diatance,377.0,Cadogan Pier_diatance,2695.0,9925.0,2.150393818419343,-3.227900051182601,0.0,-2.3862372529669815,0.0,0.4136031788438936
"Wapping High Street, Wapping",134,51.504904,-0.06797,29.0,Fenchurch Street_diatance,1016.0,Mile End Park Football Pitch_diatance,2751.0,Tower Bridge Quay_diatance,402.0,7364.0,0.0,0.0,0.0,0.0,0.0,0.29598813219028325
"Clerkenwell Green, Clerkenwell",135,51.52326004,-0.104708922,9.0,Blackfriars_diatance,1302.0,Lincoln's Inn Fields South_distance,1161.0,Blackfriars Pier_diatance,1429.0,10379.0,0.0,0.0,0.0,0.0,0.0,0.22174850201240384
"Queen Victoria Street, St. Paul's",136,51.51196176,-0.097441687,12.0,Blackfriars_diatance,387.0,Lincoln's Inn Fields South_distance,1360.0,Blackfriars Pier_diatance,285.0,1021.0,0.0,0.0,0.0,0.0,0.0,0.21585619214535978
"Green Street, Mayfair",138,51.51227622,-0.157436972,86.0,Marylebone_diatance,1264.0,Hyde Park Marble Arch_diatance,88.0,Embankment Pier_diatance,2567.0,9898.0,-7.765637075892688,0.0,-7.127508677287249,2.7306605252734255,-5.513806872593993,0.40594115219283644
"Lambeth Road, Vauxhall",139,51.49488108,-0.117974901,9.0,Waterloo_diatance,972.0,Geraldine Mary Harmsworth Park West_diatance,506.0,Millbank Millennium Pier_diatance,579.0,8461.0,0.0,0.0,0.0,0.0,0.0,0.4545055949234018
"Finsbury Square , Moorgate",140,51.52096262,-0.085634242,16.0,Liverpool Street_diatance,376.0,Lincoln's Inn Fields South_distance,2195.0,Bankside Pier_diatance,1560.0,7965.0,0.0,0.0,0.0,0.0,0.0,0.06269885754621533
"Chapel Place, Marylebone",141,51.51530805,-0.147203711,7.0,Marylebone_diatance,1395.0,Hyde Park Marble Arch_diatance,870.0,Embankment Pier_diatance,2016.0,10022.0,-2.4823176005320775,0.0,0.0,0.0,0.0,0.3892779040623926
"West Cromwell Road, Earl's Court",142,51.49372451,-0.198286569,10.0,Paddington_diatance,2991.0,Holland Park Ilchester Gate_diatance,846.0,Cadogan Pier_diatance,2520.0,16405.0,0.0,0.0,0.0,0.0,0.0,-0.6426296847790562
"Pont Street, Knightsbridge",143,51.4968865,-0.161203828,20.0,Victoria_diatance,1136.0,Hyde Park Albert Gate_diatance,659.0,Cadogan Pier_diatance,1603.0,11095.0,0.0,0.0,-3.5235857798834385,0.0,0.0,0.31467985527595055
"Kennington Cross, Kennington",144,51.48894022,-0.111435796,46.0,Vauxhall_diatance,863.0,Geraldine Mary Harmsworth Park West_diatance,739.0,Millbank Millennium Pier_diatance,971.0,17983.0,0.0,0.0,0.0,0.0,0.0,0.15117565920451229
"Ilchester Place, Kensington",145,51.50074359,-0.202759212,14.0,Paddington_diatance,2552.0,Holland Park Ilchester Gate_diatance,7.0,Cadogan Pier_diatance,3211.0,5099.0,0.0,0.0,0.0,0.0,0.0,-2.4209418975124293
"Vauxhall Bridge , Pimlico",146,51.48836528,-0.129361842,10.0,Vauxhall_diatance,525.0,St. James's Park Queen Anne's Gate_distance,1430.0,St. George Wharf_diatance,270.0,18587.0,0.0,0.0,0.0,0.0,0.0,0.2154468958603234
"Portugal Street, Holborn",147,51.51494305,-0.11614642,0.0,Charing Cross_diatance,957.0,Lincoln's Inn Fields South_distance,78.0,Festival Pier_diatance,890.0,2977.0,0.0,0.0,0.0,0.0,0.0,0.43930226853706056
"Tachbrook Street, Victoria",148,51.49211134,-0.138364847,21.0,Victoria_diatance,669.0,St. James's Park Buckingham Gate_distance,931.0,Millbank Millennium Pier_diatance,947.0,36045.0,0.0,0.0,0.0,0.0,0.0,0.16015644130975662
"Kennington Road Post Office, Oval",149,51.48478899,-0.110683213,24.0,Vauxhall_diatance,855.0,Geraldine Mary Harmsworth Park West_diatance,1199.0,St. George Wharf_diatance,1160.0,13236.0,0.0,0.0,0.0,0.0,0.0,0.11242971790521393
"Holy Trinity Brompton, Knightsbridge",150,51.49705603,-0.168917077,30.0,Victoria_diatance,1670.0,Hyde Park Alexandra Gate_diatance,660.0,Cadogan Pier_diatance,1591.0,7048.0,0.0,-2.349727210789509,0.0,0.0,0.0,0.4322836716327086
"Chepstow Villas, Notting Hill",151,51.51213691,-0.201554966,25.0,Paddington_diatance,1793.0,Kensington Gardens Black Lion Gate_diatance,978.0,Cadogan Pier_diatance,4068.0,11572.0,0.0,-2.0837704691375984,0.0,0.0,0.0,0.36665304213447186
"Hampton Street, Walworth",152,51.49217002,-0.101536865,23.0,Waterloo East_diatance,1453.0,Geraldine Mary Harmsworth Park East_diatance,531.0,Millbank Millennium Pier_diatance,1604.0,46000.0,0.0,0.0,0.0,0.0,0.0,0.1684859663919902
"Bayswater Road, Hyde Park",153,51.511933,-0.174411,129.0,Paddington_diatance,600.0,Kensington Gardens Marlborough Gate_diatance,116.0,Cadogan Pier_diatance,3283.0,14280.0,-3.1766627584970477,2.3934422397327424,-4.71286951349529,3.162404646581534,-2.909172112053738,0.5606949548182348
"Waterloo Station 3, Waterloo",154,51.50379168,-0.11282408,10.0,Waterloo_diatance,81.0,Geraldine Mary Harmsworth Park North_diatance,794.0,Festival Pier_diatance,496.0,6252.0,0.0,0.0,0.0,0.0,0.0,0.36781943502139947
"Lexham Gardens, Kensington",155,51.49586666,-0.191933711,35.0,Paddington_diatance,2580.0,Kensington Gardens Palace Gate_diatance,853.0,Cadogan Pier_diatance,2288.0,21709.0,0.0,0.0,0.0,0.0,0.0,0.332382749492167
"New Kent Road, The Borough",156,51.49443626,-0.092921165,16.0,London Bridge_diatance,1324.0,Geraldine Mary Harmsworth Park East_diatance,926.0,London Bridge City Pier_diatance,1503.0,9371.0,0.0,0.0,0.0,0.0,0.0,0.23203942168172342
"Wright's Lane, Kensington",157,51.50039792,-0.193068385,17.0,Paddington_diatance,2168.0,Kensington Gardens Studio Gate_diatance,530.0,Cadogan Pier_diatance,2689.0,9925.0,1.9868011431416366,-2.8386945128324115,0.0,-2.440508356796979,0.0,0.40008752671620074
"Trebovir Road, Earl's Court",158,51.49085368,-0.196170309,18.0,Paddington_diatance,3209.0,Holland Park Ilchester Gate_diatance,1197.0,Chelsea Harbour Pier_diatance,2187.0,22219.0,0.0,0.0,0.0,0.0,0.0,-0.41035909573036394
"Waterloo Place, St. James's",160,51.50663341,-0.131773845,57.0,Charing Cross_diatance,608.0,St. James's Park Waterloo Place Gate_distance,121.0,Embankment Pier_diatance,723.0,1810.0,0.0,0.0,0.0,0.0,0.0,0.5969976956365984
"Guildhouse Street, Victoria",161,51.49234577,-0.141334487,11.0,Victoria_diatance,530.0,St. James's Park Buckingham Gate_distance,927.0,Battersea Power Station Pier_diatance,990.0,23108.0,0.0,1.9684805753217371,0.0,2.3329111334248838,0.0,0.27659720642648206
"Southampton Place, Holborn",162,51.51760685,-0.121328408,11.0,Charing Cross_diatance,1130.0,Lincoln's Inn Fields West_distance,298.0,Embankment Pier_diatance,1182.0,5611.0,0.0,0.0,0.0,0.0,0.0,0.5772282589704458
"Sloane Avenue, Knightsbridge",163,51.4931848,-0.167894973,35.0,Victoria_diatance,1643.0,Hyde Park Alexandra Gate_diatance,1069.0,Cadogan Pier_diatance,1156.0,22959.0,0.0,0.0,0.0,0.0,0.0,0.3757903926033747
"Cleveland Gardens, Bayswater",164,51.515607,-0.183118788,22.0,Paddington_diatance,461.0,Kensington Gardens Lancaster Gate_diatance,632.0,Cadogan Pier_diatance,3824.0,27046.0,-4.054443652417093,0.0,-5.457808485353709,3.818912203724815,-4.391222660657252,0.4695356479601633
"Orsett Terrace, Bayswater",165,51.517932,-0.183716959,8.0,Paddington_diatance,481.0,Kensington Gardens Lancaster Gate_diatance,892.0,Cadogan Pier_diatance,4083.0,16583.0,-2.4093743241595136,2.268937036198471,-4.219387844450647,2.469362438623591,-3.8697609620060915,0.4633358997506346
"Seville Street, Knightsbridge",166,51.50185512,-0.159237081,26.0,Victoria_diatance,1158.0,Hyde Park Albert Gate_diatance,94.0,Cadogan Pier_diatance,2172.0,9963.0,-3.1598672363100797,0.0,-3.673246651571894,0.0,-3.8433015112098117,0.28046445730992253
"Eccleston Place, Victoria",167,51.49395092,-0.147624377,17.0,Victoria_diatance,354.0,St. James's Park Buckingham Gate_distance,966.0,Battersea Power Station Pier_diatance,1121.0,6936.0,2.826061946978607,2.7319004122625885,0.0,4.3980210327884715,0.0,0.27974003095588
"Argyll Road, Kensington",168,51.50040123,-0.195455928,9.0,Paddington_diatance,2258.0,Holland Park Duchess of Bedford_diatance,433.0,Cadogan Pier_diatance,2806.0,12893.0,0.0,-2.2930086691873757,0.0,-2.1068273529470205,0.0,0.36484937484614344
"Porchester Place, Paddington",169,51.51474612,-0.165164288,26.0,Paddington_diatance,853.0,Hyde Park Marble Arch_diatance,535.0,Embankment Pier_diatance,3154.0,13881.0,0.0,2.7323418521755043,-4.3865782662143395,2.090355262473725,-2.9595512679435503,0.6145579089387598
"Hardwick Street, Clerkenwell",170,51.52784273,-0.108068155,12.0,Kings Cross_diatance,1169.0,Lincoln's Inn Fields South_distance,1468.0,Blackfriars Pier_diatance,1978.0,14646.0,0.0,0.0,0.0,0.0,0.0,0.15091704198725103
"Collingham Gardens, Earl's Court",171,51.4916156,-0.186753859,27.0,Paddington_diatance,2915.0,Kensington Gardens Palace Gate_diatance,1154.0,Cadogan Pier_diatance,1716.0,20277.0,0.0,0.0,0.0,0.0,0.0,0.28866007346912775
"Sumner Place, South Kensington",172,51.49121192,-0.173715911,9.0,Victoria_diatance,2090.0,Hyde Park Alexandra Gate_diatance,1188.0,Cadogan Pier_diatance,1061.0,10873.0,0.0,0.0,0.0,0.0,0.0,0.3488948534576494
"Waterloo Road, South Bank",173,51.50486,-0.113001,5.0,Waterloo_diatance,196.0,Geraldine Mary Harmsworth Park North_diatance,909.0,Festival Pier_diatance,408.0,17685.0,0.0,0.0,0.0,0.0,0.0,0.3834512389249685
"Strand, Strand",174,51.512582,-0.1150573,12.0,Charing Cross_diatance,793.0,Lincoln's Inn Fields South_distance,349.0,Festival Pier_diatance,649.0,2977.0,0.0,0.0,0.0,0.0,0.0,0.4676933256513714
"Worship Street, Shoreditch",175,51.521668,-0.079608554,13.0,Liverpool Street_diatance,386.0,Victoria Park Bonner Gate_diatance,2511.0,Tower Millennium Pier_diatance,1602.0,1021.0,0.0,0.0,0.0,0.0,0.0,0.039467509274457566
"Gloucester Terrace, Bayswater",176,51.51791921,-0.188098863,13.0,Paddington_diatance,780.0,Kensington Gardens Black Lion Gate_diatance,869.0,Cadogan Pier_diatance,4181.0,16583.0,-4.695154921768704,0.0,-5.594725800187952,4.590293250379094,-4.768585995133802,0.44742766981971227
"Ashley Place, Victoria",177,51.49616092,-0.140947636,41.0,Victoria_diatance,271.0,St. James's Park Buckingham Gate_distance,512.0,Millbank Millennium Pier_diatance,1226.0,21065.0,0.0,0.0,0.0,2.0509635128693002,0.0,0.3178390746364946
"Warwick Square, Pimlico",178,51.48985626,-0.141923621,32.0,Victoria_diatance,776.0,Battersea Park Sopwith Way_diatance,1070.0,Battersea Power Station Pier_diatance,716.0,32905.0,0.0,0.0,0.0,0.0,0.0,0.22050072780722935
"North Audley Street, Mayfair",180,51.5129118,-0.153645496,20.0,Marylebone_diatance,1305.0,Hyde Park Marble Arch_diatance,359.0,Embankment Pier_diatance,2331.0,9898.0,-7.417881318175552,0.0,-6.305743618406334,2.786083443073073,-5.039434277511726,0.4004793181851569
"Belgrave Square, Belgravia",181,51.49941247,-0.152317537,19.0,Victoria_diatance,607.0,Green Park Wellington Arch_diatance,406.0,Battersea Power Station Pier_diatance,1778.0,7876.0,0.0,0.0,-3.1954547233950876,2.543877683396486,0.0,0.2722557479813944
"Bell Street , Marylebone",182,51.52202903,-0.165842551,9.0,Marylebone_diatance,230.0,The Regent's Park Clarence Gate_distance,607.0,Embankment Pier_diatance,3505.0,30382.0,0.0,0.0,0.0,0.0,0.0,0.6296783582263267
"Riverlight North, Nine Elms",183,51.482362,-0.13612398,25.0,Vauxhall_diatance,997.0,Battersea Park Sopwith Way_diatance,922.0,Battersea Power Station Pier_diatance,702.0,4849.0,0.0,0.0,0.0,0.0,0.0,0.1247647969861606
"Portland Place, Marylebone",184,51.52071513,-0.14521173,16.0,Euston_diatance,1157.0,The Regent's Park St. Andrew's Gate_distance,518.0,Embankment Pier_diatance,2250.0,13548.0,0.0,0.0,0.0,0.0,0.0,0.1803188369925468
"Alderney Street, Pimlico",185,51.48805753,-0.140741432,41.0,Victoria_diatance,991.0,Battersea Park Sopwith Way_diatance,949.0,Battersea Power Station Pier_diatance,584.0,32905.0,0.0,0.0,0.0,0.0,0.0,0.04047826141065812
"South Wharf Road, Paddington",186,51.51733558,-0.175810943,29.0,Paddington_diatance,80.0,Hyde Park Victoria Gate_diatance,654.0,Cadogan Pier_diatance,3892.0,6897.0,0.0,3.236147381700058,-2.123660036971807,0.0,-2.4280881419346083,0.5325341251853267
"Queen's Gate (South), South Kensington",187,51.49247977,-0.178433004,27.0,Victoria_diatance,2373.0,Kensington Gardens Albert Memorial Gate_diatance,1024.0,Cadogan Pier_diatance,1359.0,8081.0,0.0,0.0,0.0,0.0,0.0,0.393443642766875
"Nutford Place, Marylebone",188,51.5165179,-0.164393768,25.0,Marylebone_diatance,738.0,Hyde Park Marble Arch_diatance,628.0,Embankment Pier_diatance,3163.0,19577.0,0.0,2.351692401723996,-3.6655127531757623,0.0,-2.360922388965279,0.6636155868076494
"Claremont Square, Angel",189,51.53166681,-0.109914711,5.0,Kings Cross_diatance,929.0,Lincoln's Inn Fields South_distance,1834.0,Blackfriars Pier_diatance,2421.0,21978.0,0.0,0.0,0.0,0.0,0.0,0.12765147593125864
"Rampayne Street, Pimlico",190,51.48997562,-0.132845681,15.0,Vauxhall_diatance,824.0,St. James's Park Queen Anne's Gate_distance,1219.0,St. George Wharf_diatance,561.0,18587.0,0.0,0.0,0.0,0.0,0.0,0.03277785290547285
"Hyde Park Corner, Hyde Park",191,51.50311799,-0.153520935,971.0,Victoria_diatance,943.0,Hyde Park Queen Elizabeth Gate_diatance,136.0,Westminster Pier_diatance,2108.0,5287.0,-5.791299268754621,-3.193377542237793,-3.624437659840697,4.235941939612159,-5.435514854108674,0.28190430270243433
"Wardour Street, Soho",192,51.51251523,-0.133201961,26.0,Charing Cross_diatance,894.0,St. James's Park Waterloo Place Gate_distance,781.0,Embankment Pier_diatance,1026.0,10317.0,0.0,0.0,0.0,0.0,0.0,0.49604604213057074
"Bankside Mix, Bankside",193,51.50581776,-0.100186337,28.0,Blackfriars_diatance,672.0,Geraldine Mary Harmsworth Park North_diatance,1124.0,Bankside Pier_diatance,404.0,13123.0,0.0,0.0,0.0,0.0,0.0,0.1870042637100713
"Hop Exchange, The Borough",194,51.50462759,-0.091773776,49.0,London Bridge_diatance,468.0,Geraldine Mary Harmsworth Park East_diatance,1375.0,London Bridge City Pier_diatance,556.0,10448.0,0.0,0.0,0.0,0.0,0.0,0.20673832279662568
"Milroy Walk, South Bank",195,51.50724437,-0.106237501,13.0,Waterloo East_diatance,440.0,Geraldine Mary Harmsworth Park North_diatance,1133.0,Blackfriars Pier_diatance,524.0,9469.0,0.0,0.0,0.0,0.0,0.0,0.19239473525213815
"Union Street, The Borough",196,51.50368837,-0.098497684,8.0,Waterloo East_diatance,804.0,Geraldine Mary Harmsworth Park East_diatance,999.0,Bankside Pier_diatance,577.0,13123.0,0.0,0.0,0.0,0.0,0.0,0.17398608898259266
"Stamford Street, South Bank",197,51.50556905,-0.111606696,18.0,Waterloo East_diatance,194.0,Geraldine Mary Harmsworth Park North_diatance,958.0,Festival Pier_diatance,457.0,17685.0,0.0,0.0,0.0,0.0,0.0,0.29188027096801017
"Great Tower Street, Monument",199,51.51048489,-0.082989638,34.0,Fenchurch Street_diatance,340.0,Geraldine Mary Harmsworth Park East_diatance,2265.0,London Bridge City Pier_diatance,412.0,1021.0,0.0,0.0,0.0,0.0,0.0,0.35281776640013657
"LMU Commercial Road, Whitechapel",200,51.51492456,-0.066078037,14.0,Fenchurch Street_diatance,932.0,Mile End Park Football Pitch_diatance,2206.0,Tower Bridge Quay_diatance,1121.0,28982.0,0.0,0.0,0.0,0.0,0.0,0.23538030992728545
"Dorset Square, Marylebone",201,51.5225965,-0.161113413,33.0,Marylebone_diatance,142.0,The Regent's Park Clarence Gate_distance,311.0,Embankment Pier_diatance,3255.0,26324.0,0.0,0.0,-2.4549017887262155,0.0,0.0,0.6610228461448046
"Leman Street, Aldgate",202,51.51236389,-0.06954201,48.0,Fenchurch Street_diatance,615.0,Mile End Park Football Pitch_diatance,2504.0,Tower Bridge Quay_diatance,762.0,23872.0,0.0,0.0,0.0,0.0,0.0,0.2665929575417781
"West Smithfield Rotunda, Farringdon",203,51.51821864,-0.100791005,15.0,Blackfriars_diatance,752.0,Lincoln's Inn Fields South_distance,1103.0,Blackfriars Pier_diatance,845.0,2733.0,0.0,0.0,0.0,0.0,0.0,0.2847522507039567
"Margery Street, Clerkenwell",204,51.52659961,-0.112432615,7.0,Kings Cross_diatance,991.0,Lincoln's Inn Fields West_distance,1246.0,Blackfriars Pier_diatance,1947.0,10332.0,0.0,0.0,0.0,0.0,0.0,0.07550828483934131
"New Road 1 , Whitechapel",206,51.518154,-0.062697,45.0,Fenchurch Street_diatance,1315.0,Mile End Park Solebay Street_diatance,1899.0,Tower Bridge Quay_diatance,1548.0,10945.0,0.0,0.0,0.0,0.0,0.0,0.15992885410971694
"Grosvenor Crescent, Belgravia",207,51.50135267,-0.153194766,12.0,Victoria_diatance,785.0,Hyde Park White Horse Gate_diatance,232.0,Battersea Power Station Pier_diatance,2002.0,5287.0,-3.1177211603631294,-2.0580074607679766,-3.273473637397444,2.966848586264271,-3.905236772521795,0.2777099817908552
"Mallory Street, Marylebone",208,51.52505151,-0.166304359,17.0,Marylebone_diatance,315.0,The Regent's Park Hanover Gate_distance,375.0,Embankment Pier_diatance,3704.0,31119.0,0.0,0.0,0.0,0.0,0.0,0.5731540499415716
"Denyer Street, Knightsbridge",209,51.49358391,-0.165101392,12.0,Victoria_diatance,1445.0,Hyde Park Albert Gate_diatance,1099.0,Cadogan Pier_diatance,1199.0,22959.0,0.0,0.0,-2.793932422934482,0.0,0.0,0.3349394721179308
"Hinde Street, Marylebone",210,51.51681444,-0.151926305,20.0,Marylebone_diatance,1037.0,Hyde Park Marble Arch_diatance,701.0,Embankment Pier_diatance,2383.0,7737.0,-3.729916179349697,0.0,-3.279319407074827,2.4567843654944985,-2.476809746277892,0.49162036875094833
"Cadogan Place, Knightsbridge",211,51.49464523,-0.158105512,23.0,Victoria_diatance,946.0,Hyde Park Albert Gate_diatance,882.0,Cadogan Pier_diatance,1433.0,11095.0,0.0,0.0,-4.32282359206666,2.0828692692877655,0.0,0.2903989084154068
"Campden Hill Road, Notting Hill",212,51.50658458,-0.199004026,12.0,Paddington_diatance,1925.0,Holland Park Duchess of Bedford_diatance,478.0,Cadogan Pier_diatance,3476.0,11513.0,0.0,-2.4357991838281907,0.0,0.0,0.0,0.37061522550657156
"Wellington Arch, Hyde Park",213,51.50274025,-0.149569201,299.0,Victoria_diatance,758.0,Green Park Wellington Arch_diatance,15.0,Westminster Pier_diatance,1833.0,1810.0,-3.9962400602920543,-3.948622677163836,-3.496969568787882,5.124692392292739,-2.720488691959521,0.28857046719151697
"Endsleigh Gardens, Euston",214,51.52683806,-0.130504336,20.0,Euston_diatance,345.0,The Regent's Park Chester Gate_distance,1072.0,Embankment Pier_diatance,2298.0,17263.0,0.0,0.0,0.0,0.0,0.0,0.13836649938148843
"Moorfields, Moorgate",215,51.51906932,-0.088285377,13.0,Liverpool Street_diatance,446.0,Lincoln's Inn Fields South_distance,1968.0,Blackfriars Pier_diatance,1285.0,1021.0,0.0,0.0,0.0,0.0,0.0,0.1425981912326684
"Old Brompton Road, South Kensington",216,51.49094565,-0.181190899,33.0,Victoria_diatance,2597.0,Kensington Gardens Queen Gate_diatance,1192.0,Cadogan Pier_diatance,1366.0,21151.0,0.0,0.0,0.0,0.0,0.0,0.30737066308193406
"Wormwood Street, Liverpool Street",217,51.51615461,-0.082422399,22.0,Liverpool Street_diatance,263.0,Lincoln's Inn Fields South_distance,2337.0,Tower Millennium Pier_diatance,1017.0,1021.0,0.0,0.0,0.0,0.0,0.0,0.22835913316259523
"St. Luke's Church, Chelsea",218,51.48971651,-0.170194408,4.0,Victoria_diatance,1917.0,Battersea Park Albert Gate_diatance,1179.0,Cadogan Pier_diatance,810.0,9264.0,0.0,0.0,0.0,0.0,0.0,0.037906256568446754
"Bramham Gardens, Earl's Court",219,51.49016361,-0.19039362,34.0,Paddington_diatance,3137.0,Kensington Gardens Palace Gate_diatance,1370.0,Cadogan Pier_diatance,1852.0,17448.0,0.0,0.0,0.0,0.0,0.0,0.18859613095518302
"Chelsea Green, Chelsea",220,51.49066456,-0.166485083,12.0,Victoria_diatance,1640.0,Battersea Park Albert Gate_diatance,1237.0,Cadogan Pier_diatance,871.0,14577.0,0.0,0.0,0.0,0.0,0.0,0.2672023654987989
"Horseferry Road, Westminster",221,51.49481649,-0.13045856,21.0,Victoria_diatance,1012.0,St. James's Park Queen Anne's Gate_distance,718.0,Millbank Millennium Pier_diatance,523.0,38122.0,0.0,0.0,0.0,0.0,0.0,0.4554326303286563
"Knightsbridge, Hyde Park",222,51.50275704,-0.155349725,57.0,Victoria_diatance,1001.0,Hyde Park White Horse Gate_diatance,36.0,Battersea Power Station Pier_diatance,2193.0,5287.0,-5.070904263518338,0.0,-4.053366815770797,2.0880240069211666,-4.8851084060064105,0.2830184735733958
"Rodney Road , Walworth",223,51.49148474,-0.090220911,34.0,London Bridge_diatance,1577.0,Geraldine Mary Harmsworth Park East_diatance,1207.0,London Bridge City Pier_diatance,1760.0,17498.0,0.0,0.0,0.0,0.0,0.0,0.24821302028449455
"Queensway, Kensington Gardens",224,51.51031,-0.18740235,0.0,Paddington_diatance,1048.0,Kensington Gardens Black Lion Gate_diatance,36.0,Cadogan Pier_diatance,3384.0,27598.0,-4.698396433052272,0.0,-6.433871358517657,3.168079142402744,-5.255241102682454,0.4385348189051758
"Notting Hill Gate Station, Notting Hill",225,51.50935342,-0.196422,25.0,Paddington_diatance,1602.0,Kensington Gardens Black Lion Gate_diatance,603.0,Cadogan Pier_diatance,3609.0,17672.0,0.0,-3.3704227125283324,0.0,0.0,-3.1689436667121935,0.41835248102913336
"Charles II Street, West End",226,51.50844614,-0.131961389,8.0,Charing Cross_diatance,622.0,St. James's Park Waterloo Place Gate_distance,321.0,Embankment Pier_diatance,753.0,1810.0,0.0,0.0,0.0,0.0,0.0,0.5823687258936849
"Great Percy Street, Clerkenwell",227,51.52891573,-0.115480888,21.0,Kings Cross_diatance,665.0,Lincoln's Inn Fields West_distance,1453.0,Blackfriars Pier_diatance,2270.0,13116.0,0.0,0.0,0.0,0.0,0.0,0.049594168202577574
"St. James's Square, St. James's",228,51.50742485,-0.134621209,46.0,Charing Cross_diatance,797.0,St. James's Park Waterloo Place Gate_distance,311.0,Embankment Pier_diatance,921.0,1810.0,0.0,0.0,0.0,0.0,0.0,0.23832183431753012
"Whitehall Place, Strand",229,51.50654321,-0.123179697,50.0,Charing Cross_diatance,107.0,St. James's Park Waterloo Place Gate_distance,567.0,Embankment Pier_diatance,136.0,1810.0,0.0,0.0,0.0,0.0,0.0,0.7331571523204492
"Poured Lines, Bankside",230,51.50669284,-0.103137426,12.0,Blackfriars_diatance,546.0,Geraldine Mary Harmsworth Park North_diatance,1125.0,Blackfriars Pier_diatance,462.0,9469.0,0.0,0.0,0.0,0.0,0.0,0.18539840274467512
"Queen's Gate (Central), South Kensington",231,51.49396755,-0.17873226,26.0,Victoria_diatance,2367.0,Kensington Gardens Queen Gate_diatance,860.0,Cadogan Pier_diatance,1505.0,8081.0,0.0,0.0,0.0,2.1168270629356427,0.0,0.41364504601366553
"Carey Street, Holborn",232,51.51501025,-0.112753217,0.0,Blackfriars_diatance,774.0,Lincoln's Inn Fields South_distance,248.0,Blackfriars Pier_diatance,952.0,5611.0,0.0,0.0,0.0,0.0,0.0,0.2933747640166843
"Pall Mall East, West End",233,51.50777049,-0.130699733,47.0,Charing Cross_diatance,527.0,St. James's Park Waterloo Place Gate_distance,244.0,Embankment Pier_diatance,654.0,1810.0,0.0,0.0,0.0,0.0,0.0,0.6364751375704507
"Liverpool Road (N1 Centre), Angel",234,51.53450449,-0.106992706,12.0,Kings Cross_diatance,1152.0,Lincoln's Inn Fields South_distance,2191.0,Blackfriars Pier_diatance,2689.0,11849.0,0.0,0.0,0.0,0.0,0.0,0.26264879977286915
"Kennington Road  , Vauxhall",235,51.49571828,-0.110889274,15.0,Waterloo_diatance,836.0,Geraldine Mary Harmsworth Park West_diatance,19.0,Millbank Millennium Pier_diatance,1052.0,8733.0,0.0,0.0,0.0,0.0,0.0,0.21983773283826039
"Fashion Street, Whitechapel",236,51.51838043,-0.073438925,8.0,Liverpool Street_diatance,586.0,Victoria Park Bonner Gate_diatance,2407.0,Tower Millennium Pier_diatance,1292.0,16990.0,0.0,0.0,0.0,0.0,0.0,0.19250348988270205
"Dock Street, Wapping",237,51.5097860151,-0.0681619805156,20.0,Fenchurch Street_diatance,724.0,Mile End Park Football Pitch_diatance,2508.0,Tower Bridge Quay_diatance,563.0,11416.0,0.0,0.0,0.0,0.0,0.0,0.2923277942478448
"Frampton Street, Paddington",238,51.5233534,-0.175116099,9.0,Paddington_diatance,706.0,The Regent's Park Hanover Gate_distance,863.0,Embankment Pier_diatance,4143.0,17517.0,0.0,2.087012725178242,0.0,0.0,0.0,0.44096691137097455
"Warren Street Station, Euston",239,51.52443845,-0.138019439,24.0,Euston_diatance,533.0,The Regent's Park St. Andrew's Gate_distance,556.0,Embankment Pier_diatance,2259.0,11192.0,0.0,0.0,0.0,0.0,0.0,0.13563315651354324
"Beaumont Street, Marylebone",242,51.52200801,-0.151359288,9.0,Marylebone_diatance,814.0,The Regent's Park York Gate_distance,316.0,Embankment Pier_diatance,2666.0,10935.0,-2.242949388355847,0.0,0.0,0.0,0.0,0.5988130650883394
"Gloucester Street, Pimlico",243,51.49096258,-0.139625122,27.0,Victoria_diatance,722.0,St. James's Park Buckingham Gate_distance,1062.0,Battersea Power Station Pier_diatance,897.0,23108.0,0.0,0.0,0.0,0.0,0.0,0.1360139563813549
"Earnshaw Street , Covent Garden",244,51.51611887,-0.128585022,16.0,Charing Cross_diatance,1031.0,Lincoln's Inn Fields West_distance,736.0,Embankment Pier_diatance,1134.0,14797.0,0.0,0.0,0.0,0.0,0.0,0.5446632546575318
"Grosvenor Road, Pimlico",245,51.4853572,-0.142207481,5.0,Victoria_diatance,1263.0,Battersea Park Sopwith Way_diatance,661.0,Battersea Power Station Pier_diatance,304.0,37134.0,0.0,0.0,0.0,0.0,0.0,-0.029227729893505593
"Berry Street, Clerkenwell",246,51.52285301,-0.099994052,36.0,Blackfriars_diatance,1268.0,Lincoln's Inn Fields South_distance,1378.0,Blackfriars Pier_diatance,1362.0,32680.0,0.0,0.0,0.0,0.0,0.0,0.25483517117735616
"St. John's Wood Church, The Regent's Park",247,51.530529,-0.167515,37.0,Marylebone_diatance,883.0,The Regent's Park Hanover Gate_distance,270.0,Embankment Pier_diatance,4131.0,6376.0,0.0,0.0,0.0,0.0,0.0,0.4257488117296789
"Triangle Car Park, Hyde Park",248,51.50645179,-0.170279555,403.0,Paddington_diatance,1270.0,Serpentine Bridge North_diatance,106.0,Cadogan Pier_diatance,2640.0,891.0,-4.693220911763616,-2.2260807080759193,-6.1846735973157605,0.0,-3.7233367999225724,0.5215350684553461
"Harper Road, The Borough",249,51.49859784,-0.096191134,13.0,London Bridge_diatance,1070.0,Geraldine Mary Harmsworth Park East_diatance,740.0,Bankside Pier_diatance,1132.0,15510.0,0.0,0.0,0.0,0.0,0.0,0.1761250794235806
"Royal Avenue 1, Chelsea",250,51.489932,-0.162727,12.0,Victoria_diatance,1446.0,Battersea Park Albert Gate_diatance,1165.0,Cadogan Pier_diatance,829.0,14837.0,0.0,0.0,-2.9671639149142655,0.0,0.0,0.2535502905151767
"Brushfield Street, Liverpool Street",251,51.518908,-0.079249,33.0,Liverpool Street_diatance,189.0,Lincoln's Inn Fields South_distance,2582.0,Tower Millennium Pier_diatance,1294.0,16990.0,0.0,0.0,0.0,0.0,0.0,0.14243543249730534
"Jubilee Gardens, South Bank",252,51.5046364,-0.116542278,42.0,Waterloo_diatance,288.0,Geraldine Mary Harmsworth Park North_diatance,998.0,Festival Pier_diatance,277.0,6252.0,0.0,0.0,0.0,0.0,0.0,0.5759465815803398
"Shoreditch Park, Hoxton",253,51.53404294,-0.086379717,47.0,Liverpool Street_diatance,1756.0,Victoria Park St Agnes Gate_diatance,2443.0,Blackfriars Pier_diatance,2793.0,11282.0,0.0,0.0,0.0,0.0,0.0,0.34656815403290964
"Chadwell Street, Angel",254,51.53051587,-0.106408455,15.0,Kings Cross_diatance,1187.0,Lincoln's Inn Fields South_distance,1787.0,Blackfriars Pier_diatance,2244.0,14646.0,0.0,0.0,0.0,0.0,0.0,0.21939564630550973
"Clifton Road, Maida Vale",255,51.52557531,-0.179592915,40.0,Paddington_diatance,961.0,The Regent's Park Hanover Gate_distance,1015.0,Embankment Pier_diatance,4531.0,27130.0,2.0949694087766675,2.5553946890917585,0.0,-2.099712151625086,0.0,0.42616004714347566
"Houghton Street, Strand",256,51.51362054,-0.116764211,3.0,Charing Cross_diatance,810.0,Lincoln's Inn Fields South_distance,229.0,Festival Pier_diatance,740.0,2977.0,0.0,0.0,0.0,0.0,0.0,0.5637351213980611
"Westminster University, Marylebone",257,51.52248185,-0.154907218,27.0,Marylebone_diatance,564.0,The Regent's Park York Gate_distance,266.0,Embankment Pier_diatance,2893.0,23675.0,-2.5471595483927563,0.0,-2.526578280795535,0.0,0.0,0.6478727743438979
"Kensington Gore, Knightsbridge",258,51.50143293,-0.178656971,28.0,Paddington_diatance,1746.0,Kensington Gardens Albert Memorial Gate_diatance,82.0,Cadogan Pier_diatance,2236.0,4109.0,0.0,0.0,0.0,2.9132863275867495,-3.672790907582266,0.4750843353476599
"Bourne Street, Belgravia",259,51.490959,-0.1532331,49.0,Victoria_diatance,857.0,Battersea Park Sopwith Way_diatance,1094.0,Battersea Power Station Pier_diatance,931.0,13792.0,0.0,0.0,-3.407341439564443,3.3760176778468387,0.0,0.2678817116258102
"Broadwick Street, Soho",260,51.5136846,-0.135580879,14.0,Charing Cross_diatance,1104.0,St. James's Park Waterloo Place Gate_distance,948.0,Embankment Pier_diatance,1236.0,14540.0,0.0,0.0,0.0,0.0,0.0,0.18828266548266628
"Princes Square, Bayswater",261,51.5134891,-0.191351186,18.0,Paddington_diatance,1078.0,Kensington Gardens Black Lion Gate_diatance,449.0,Cadogan Pier_diatance,3822.0,22058.0,-4.895039235523694,0.0,-5.643047745920281,4.759561933235945,-5.234057274455268,0.44101909653771626
"LSBU (Borough Road), Elephant & Castle",262,51.49874469,-0.103132904,14.0,Waterloo East_diatance,766.0,Geraldine Mary Harmsworth Park East_diatance,363.0,Bankside Pier_diatance,1198.0,18013.0,0.0,0.0,0.0,0.0,0.0,0.170982532692791
"St. Mary Axe, Aldgate",263,51.51422502,-0.080660083,17.0,Fenchurch Street_diatance,354.0,Lincoln's Inn Fields South_distance,2464.0,Tower Millennium Pier_diatance,783.0,1021.0,0.0,0.0,0.0,0.0,0.0,0.3134090358197321
"Tysoe Street, Clerkenwell",264,51.52644342,-0.109256828,27.0,Kings Cross_diatance,1176.0,Lincoln's Inn Fields South_distance,1293.0,Blackfriars Pier_diatance,1851.0,10332.0,0.0,0.0,0.0,0.0,0.0,0.13974333883818676
"Southwick Street, Paddington",265,51.51595344,-0.169249375,24.0,Paddington_diatance,545.0,Hyde Park Victoria Gate_diatance,500.0,Embankment Pier_diatance,3463.0,24494.0,0.0,3.1739206857146334,-2.586885601116302,0.0,-2.189096633517493,0.6620697759073543
"Queen's Gate (North), Kensington",266,51.50102668,-0.180246101,39.0,Paddington_diatance,1802.0,Kensington Gardens Queen Gate_diatance,69.0,Cadogan Pier_diatance,2240.0,14798.0,0.0,0.0,0.0,2.7829240105815805,-3.297017058765628,0.4596558557368062
"Regency Street, Westminster",267,51.49206037,-0.132224622,17.0,Vauxhall_diatance,941.0,St. James's Park Queen Anne's Gate_distance,991.0,Millbank Millennium Pier_diatance,522.0,24216.0,0.0,0.0,0.0,0.0,0.0,0.18378529600865617
"Empire Square, The Borough",269,51.50082346,-0.089740764,23.0,London Bridge_diatance,592.0,Geraldine Mary Harmsworth Park East_diatance,1248.0,London Bridge City Pier_diatance,765.0,19495.0,0.0,0.0,0.0,0.0,0.0,0.23312356573844134
"Kennington Lane Rail Bridge, Vauxhall",270,51.4863434,-0.122492418,19.0,Vauxhall_diatance,57.0,Geraldine Mary Harmsworth Park West_diatance,1309.0,St. George Wharf_diatance,330.0,11597.0,0.0,0.0,0.0,0.0,0.0,0.1972829777234945
"London Zoo,  The Regent's Park",271,51.53583617,-0.156285395,42.0,Marylebone_diatance,1490.0,The Regent's Park Monkey Gate_distance,197.0,Embankment Pier_diatance,4018.0,5024.0,0.0,0.0,0.0,0.0,0.0,0.6435734434920541
"Baylis Road, Waterloo",272,51.50144456,-0.110699309,25.0,Waterloo_diatance,253.0,Geraldine Mary Harmsworth Park North_diatance,499.0,London Eye - Waterloo Pier_diatance,712.0,6252.0,0.0,0.0,0.0,0.0,0.0,0.24535873793162272
"Belvedere Road 1, South Bank",273,51.50613324,-0.114686385,20.0,Waterloo_diatance,353.0,Lincoln's Inn Fields South_distance,1063.0,Festival Pier_diatance,236.0,6252.0,0.0,0.0,0.0,0.0,0.0,0.48861727346574263
"Warwick Road, Olympia",274,51.49671237,-0.20528437,20.0,Paddington_diatance,3000.0,Holland Park Abbotsbury Gate_diatance,449.0,Chelsea Harbour Pier_diatance,3078.0,16405.0,0.0,0.0,0.0,0.0,0.0,-0.7672347548469668
"Barbican Centre, Barbican",275,51.52004497,-0.092176447,21.0,Liverpool Street_diatance,731.0,Lincoln's Inn Fields South_distance,1732.0,Blackfriars Pier_diatance,1211.0,7347.0,0.0,0.0,0.0,0.0,0.0,0.18096842443764785
"Kensington Church Street, Kensington",277,51.50315739,-0.191496313,28.0,Paddington_diatance,1850.0,Kensington Gardens Studio Gate_diatance,245.0,Cadogan Pier_diatance,2852.0,7318.0,2.2100670125328064,-3.745217385205583,0.0,-2.8348525810241334,-2.5212422347914347,0.4188111697287691
"Tooley Street, Bermondsey",278,51.5034938,-0.07962099,70.0,London Bridge_diatance,429.0,Geraldine Mary Harmsworth Park East_diatance,2009.0,Tower Millennium Pier_diatance,423.0,9193.0,0.0,0.0,0.0,0.0,0.0,0.23002400719144572
"North Wharf Road, Paddington",279,51.51862243,-0.176645823,24.0,Paddington_diatance,170.0,Kensington Gardens Marlborough Gate_diatance,798.0,Embankment Pier_diatance,4041.0,6897.0,0.0,3.375570504138803,0.0,0.0,-2.391932090629146,0.5141597137521937
"Royal Avenue 2, Chelsea",280,51.490083,-0.162418,22.0,Victoria_diatance,1419.0,Battersea Park Albert Gate_diatance,1185.0,Cadogan Pier_diatance,851.0,14837.0,0.0,0.0,-3.1282223809152945,0.0,0.0,0.25883257240071184
"Smith Square, Westminster",281,51.49580589,-0.127575233,9.0,Vauxhall_diatance,1148.0,St. James's Park Storey's Gate_distance,649.0,Millbank Millennium Pier_diatance,490.0,6973.0,0.0,0.0,0.0,0.0,0.0,0.6307846522147564
"Royal London Hospital, Whitechapel",282,51.518675,-0.06111,28.0,Fenchurch Street_diatance,1439.0,Mile End Park Solebay Street_diatance,1778.0,Tower Bridge Quay_diatance,1653.0,10945.0,0.0,0.0,0.0,0.0,0.0,0.1301253644619101
"Kingsway, Covent Garden",283,51.51440928,-0.118478757,8.0,Charing Cross_diatance,832.0,Lincoln's Inn Fields West_distance,174.0,Festival Pier_diatance,825.0,2977.0,0.0,0.0,0.0,0.0,0.0,0.627443215589553
"Lambeth North Station, Waterloo",284,51.49914063,-0.112031483,11.0,Waterloo_diatance,448.0,Geraldine Mary Harmsworth Park North_diatance,325.0,London Eye - Waterloo Pier_diatance,755.0,6252.0,0.0,0.0,0.0,0.0,0.0,0.3029996584213125
"St. John's Wood Road, St. John's Wood",286,51.5272947,-0.174653609,22.0,Marylebone_diatance,931.0,The Regent's Park Hanover Gate_distance,635.0,Embankment Pier_diatance,4326.0,33719.0,0.0,0.0,0.0,0.0,0.0,0.2537756843969382
"Bedford Way, Bloomsbury",287,51.52367314,-0.128377673,19.0,Euston_diatance,701.0,Lincoln's Inn Fields West_distance,1123.0,Embankment Pier_diatance,1919.0,5482.0,0.0,0.0,0.0,0.0,0.0,0.1616709758429632
"Elizabeth Bridge, Victoria",288,51.49236962,-0.147478734,34.0,Victoria_diatance,506.0,St. James's Park Buckingham Gate_distance,1098.0,Battersea Power Station Pier_diatance,946.0,6936.0,3.0057184054329826,2.9038237100126043,0.0,4.319855026096762,0.0,0.27602179920543435
"South Audley Street, Mayfair",289,51.50923022,-0.151296092,15.0,Victoria_diatance,1475.0,Hyde Park Park Lane_diatance,500.0,Embankment Pier_diatance,2089.0,9898.0,-9.341683307399153,0.0,-6.003469682360592,5.730599324917977,-7.064565399305749,0.3439860085449751
"St Mary's Hospital, Paddington",290,51.518268,-0.17110323,6.0,Paddington_diatance,422.0,Hyde Park Victoria Gate_diatance,716.0,Embankment Pier_diatance,3666.0,29198.0,0.0,2.817196395201109,0.0,0.0,0.0,0.6135070714763137
"Claverton Street, Pimlico",291,51.48483991,-0.138089062,5.0,Vauxhall_diatance,1058.0,Battersea Park Sopwith Way_diatance,868.0,Battersea Power Station Pier_diatance,554.0,20587.0,0.0,0.0,0.0,0.0,0.0,0.03542884261740683
"Montpelier Street, Knightsbridge",292,51.49888404,-0.165471605,39.0,Victoria_diatance,1453.0,Hyde Park Albert Gate_diatance,633.0,Cadogan Pier_diatance,1786.0,891.0,0.0,-2.244618658169266,-2.506164141635182,0.0,0.0,0.3682496556279492
"Kensington Olympia Station, Olympia",293,51.49815779,-0.209494128,14.0,Paddington_diatance,3086.0,Holland Park Abbotsbury Gate_diatance,406.0,Chelsea Harbour Pier_diatance,3380.0,17233.0,0.0,0.0,0.0,0.0,0.0,0.08612392821798749
"St. George's Square, Pimlico",294,51.488226,-0.135635511,29.0,Vauxhall_diatance,919.0,Battersea Park Sopwith Way_diatance,1215.0,St. George Wharf_diatance,618.0,20587.0,0.0,0.0,0.0,0.0,0.0,-0.10984450477093778
"Swan Street, The Borough",295,51.50029631,-0.092762704,21.0,London Bridge_diatance,769.0,Geraldine Mary Harmsworth Park East_diatance,1035.0,London Bridge City Pier_diatance,927.0,36858.0,0.0,0.0,0.0,0.0,0.0,0.21702727962420293
"Knaresborough Place, Earl's Court",296,51.49363156,-0.190603326,27.0,Paddington_diatance,2777.0,Kensington Gardens Palace Gate_diatance,1016.0,Cadogan Pier_diatance,2063.0,19718.0,0.0,0.0,0.0,0.0,0.0,0.23803042248853187
"Geraldine Street, Elephant & Castle",297,51.49612799,-0.106000855,5.0,Waterloo_diatance,922.0,Geraldine Mary Harmsworth Park East_diatance,11.0,London Eye - Waterloo Pier_diatance,1290.0,8733.0,0.0,0.0,0.0,0.0,0.0,0.19662351093545735
"Curlew Street, Shad Thames",298,51.50227992,-0.074189225,47.0,London Bridge_diatance,826.0,Geraldine Mary Harmsworth Park East_diatance,2312.0,Tower Bridge Quay_diatance,413.0,40648.0,0.0,0.0,0.0,0.0,0.0,0.2836888486852452
"Vincent Square, Westminster",299,51.49398524,-0.136928582,5.0,Victoria_diatance,618.0,St. James's Park Buckingham Gate_distance,731.0,Millbank Millennium Pier_diatance,882.0,24216.0,0.0,0.0,0.0,0.0,0.0,0.1936868645587416
"Serpentine Car Park, Hyde Park",300,51.505014,-0.17306032,230.0,Paddington_diatance,1370.0,Serpentine Bridge South_diatance,54.0,Cadogan Pier_diatance,2509.0,891.0,-3.8107155028332866,0.0,-5.1316889877146314,0.0,-3.477309528610713,0.5099862258521988
"Marylebone Lane, Marylebone",301,51.51475963,-0.148105415,27.0,Marylebone_diatance,1386.0,Hyde Park Marble Arch_diatance,788.0,Embankment Pier_diatance,2045.0,7737.0,-3.399122301252375,0.0,-2.5889485194804194,0.0,-2.388034209373631,0.3989064925139355
"Putney Pier, Wandsworth",302,51.466907,-0.216573,39.0,Clapham Junction_diatance,3218.0,Battersea Park Sun Gate_diatance,3797.0,Putney Pier_diatance,94.0,17661.0,0.0,0.0,0.0,0.0,0.0,0.33869322000381197
"Albert Gate, Hyde Park",303,51.50295379,-0.158456089,608.0,Victoria_diatance,1180.0,Hyde Park Albert Gate_diatance,43.0,Battersea Power Station Pier_diatance,2287.0,5287.0,-4.105403215743405,0.0,-3.6712821398910527,0.0,-4.87644908726285,0.2757013618695954
"Rathbone Street, Fitzrovia",306,51.51816295,-0.135025698,11.0,Euston_diatance,1172.0,The Regent's Park St. Andrew's Gate_distance,1099.0,Embankment Pier_diatance,1563.0,10317.0,0.0,0.0,0.0,0.0,0.0,0.19492155894226113
"Black Lion Gate, Kensington Gardens",307,51.50990837,-0.187842717,634.0,Paddington_diatance,1101.0,Kensington Gardens Black Lion Gate_diatance,22.0,Cadogan Pier_diatance,3358.0,7324.0,-4.323072087217094,0.0,-6.155973110383665,2.7698341607717354,-5.181498818250814,0.43695262471889573
"Long Lane , Bermondsey",308,51.49907558,-0.085666316,23.0,London Bridge_diatance,693.0,Geraldine Mary Harmsworth Park East_diatance,1451.0,London Bridge City Pier_diatance,876.0,25147.0,0.0,0.0,0.0,0.0,0.0,0.23825261521424046
"Embankment (Savoy), Strand",309,51.50963123,-0.119047563,23.0,Charing Cross_diatance,367.0,Lincoln's Inn Fields South_distance,697.0,Festival Pier_diatance,305.0,2977.0,0.0,0.0,0.0,0.0,0.0,0.69660759458651
"Black Prince Road, Vauxhall",310,51.4908679,-0.116911864,29.0,Vauxhall_diatance,691.0,Geraldine Mary Harmsworth Park West_diatance,675.0,Millbank Millennium Pier_diatance,548.0,19457.0,0.0,0.0,0.0,0.0,0.0,0.25236448668930767
"Foley Street, Fitzrovia",311,51.51918144,-0.140485596,9.0,Euston_diatance,1137.0,The Regent's Park St. Andrew's Gate_distance,783.0,Embankment Pier_diatance,1897.0,10022.0,0.0,0.0,0.0,0.0,0.0,-0.30237005387360977
"Grove End Road, St. John's Wood",312,51.53088935,-0.176770502,19.0,Marylebone_diatance,1288.0,The Regent's Park Hanover Gate_distance,818.0,Embankment Pier_diatance,4667.0,29960.0,0.0,0.0,0.0,0.0,0.0,0.2519537462690208
"Wells Street, Fitzrovia",313,51.51734403,-0.138072691,16.0,Euston_diatance,1287.0,The Regent's Park St. Andrew's Gate_distance,1043.0,Embankment Pier_diatance,1634.0,10022.0,0.0,0.0,0.0,0.0,0.0,-0.10832005738981018
"Tyers Gate, Bermondsey",314,51.50088934,-0.083159352,21.0,London Bridge_diatance,509.0,Geraldine Mary Harmsworth Park East_diatance,1674.0,London Bridge City Pier_diatance,679.0,23957.0,0.0,0.0,0.0,0.0,0.0,0.22781231321852555
"The Tennis Courts, The Regent's Park",315,51.52536703,-0.153463612,147.0,Marylebone_diatance,706.0,The Regent's Park York Gate_distance,86.0,Embankment Pier_diatance,3021.0,3413.0,-2.336801083445326,0.0,-2.041730410064195,0.0,0.0,0.6091789175700907
"Warwick Row, Westminster",316,51.497998,-0.14296064,0.0,Victoria_diatance,201.0,St. James's Park Buckingham Gate_distance,418.0,Westminster Pier_diatance,1433.0,3982.0,0.0,0.0,0.0,3.185118936360483,0.0,0.29649656566798765
"Dickens Square, Borough",317,51.49679128,-0.093913472,25.0,London Bridge_diatance,1126.0,Geraldine Mary Harmsworth Park East_diatance,844.0,London Bridge City Pier_diatance,1297.0,18534.0,0.0,0.0,0.0,0.0,0.0,0.22116151772646564
"Sackville Street, Mayfair",318,51.51004801,-0.138846453,6.0,Charing Cross_diatance,1126.0,Green Park Devonshire Gates_diatance,634.0,Embankment Pier_diatance,1259.0,2938.0,0.0,0.0,0.0,0.0,0.0,-0.04874978808815983
"Baldwin Street, St. Luke's",319,51.52702563,-0.088542771,11.0,Liverpool Street_diatance,1054.0,Lincoln's Inn Fields South_distance,2293.0,Blackfriars Pier_diatance,2016.0,22967.0,0.0,0.0,0.0,0.0,0.0,0.32300918379777943
"Queen Mother Sports Centre, Victoria",320,51.49357351,-0.139956043,21.0,Victoria_diatance,475.0,St. James's Park Buckingham Gate_distance,776.0,Millbank Millennium Pier_diatance,1075.0,23108.0,0.0,0.0,0.0,0.0,0.0,0.2769067804507075
"Bermondsey Street, Bermondsey",321,51.49785559,-0.081608045,48.0,London Bridge_diatance,862.0,Geraldine Mary Harmsworth Park East_diatance,1704.0,London Bridge City Pier_diatance,1030.0,22671.0,0.0,0.0,0.0,0.0,0.0,0.23953659405651448
"Palissy Street, Shoreditch",322,51.526293,-0.073955,26.0,Liverpool Street_diatance,1026.0,Victoria Park Bonner Gate_diatance,1919.0,Tower Millennium Pier_diatance,2142.0,19435.0,0.0,0.0,0.0,0.0,0.0,0.026537666774375232
"Clifton Street, Shoreditch",323,51.523196,-0.083067,3.0,Liverpool Street_diatance,528.0,Lincoln's Inn Fields South_distance,2441.0,Tower Millennium Pier_diatance,1794.0,6784.0,0.0,0.0,0.0,0.0,0.0,0.02588324914015091
"Ontario Street, Elephant & Castle",324,51.49652013,-0.101384068,23.0,Waterloo East_diatance,1037.0,Geraldine Mary Harmsworth Park East_diatance,327.0,Bankside Pier_diatance,1399.0,12715.0,0.0,0.0,0.0,0.0,0.0,0.1711800234903919
"St. Martin's Street, West End",325,51.50908747,-0.129697889,34.0,Charing Cross_diatance,490.0,St. James's Park Waterloo Place Gate_distance,402.0,Embankment Pier_diatance,624.0,5614.0,0.0,0.0,0.0,0.0,0.0,0.6538899012968649
"Graham Street, Angel",326,51.53266186,-0.099981142,35.0,Kings Cross_diatance,1613.0,Lincoln's Inn Fields South_distance,2199.0,Blackfriars Pier_diatance,2452.0,14759.0,0.0,0.0,0.0,0.0,0.0,0.38074063344190934
"New North Road 1, Hoxton",327,51.53095,-0.085603,3.0,Liverpool Street_diatance,1408.0,Victoria Park St Agnes Gate_diatance,2452.0,Blackfriars Pier_diatance,2497.0,20774.0,0.0,0.0,0.0,0.0,0.0,0.30697047168104635
"New North Road 2, Hoxton",328,51.53114,-0.086016,9.0,Liverpool Street_diatance,1434.0,Victoria Park St Agnes Gate_diatance,2475.0,Blackfriars Pier_diatance,2505.0,20774.0,0.0,0.0,0.0,0.0,0.0,0.3199982518232298
"Prince Albert Road, The Regent's Park",329,51.53589283,-0.160854428,25.0,Marylebone_diatance,1430.0,The Regent's Park Monkey Gate_distance,171.0,Embankment Pier_diatance,4221.0,3413.0,0.0,0.0,0.0,0.0,0.0,0.6306406984152529
"Eastbourne Mews, Paddington",330,51.51641749,-0.179135079,15.0,Paddington_diatance,172.0,Kensington Gardens Marlborough Gate_diatance,595.0,Cadogan Pier_diatance,3837.0,14124.0,0.0,2.840841244221943,-3.5860219388186763,0.0,-3.2810112372811484,0.5031241507180928
"Bunhill Row, Moorgate",331,51.52085887,-0.089887855,8.0,Liverpool Street_diatance,612.0,Lincoln's Inn Fields South_distance,1910.0,Blackfriars Pier_diatance,1372.0,7965.0,0.0,0.0,0.0,0.0,0.0,0.1646296781717632
"Nevern Place, Earl's Court",332,51.49334336,-0.194757949,13.0,Paddington_diatance,2916.0,Holland Park Ilchester Gate_diatance,998.0,Cadogan Pier_diatance,2287.0,25323.0,0.0,0.0,0.0,0.0,0.0,0.05951230139410405
"Palace Gardens Terrace, Notting Hill",333,51.50860544,-0.193764092,24.0,Paddington_diatance,1501.0,Kensington Gardens Black Lion Gate_diatance,445.0,Cadogan Pier_diatance,3436.0,7324.0,0.0,-3.6920769498790955,-2.0068134367881063,0.0,-3.8250915241073136,0.4287178747336605
"Concert Hall Approach 1, South Bank",334,51.505044,-0.115851,23.0,Waterloo_diatance,284.0,Geraldine Mary Harmsworth Park North_diatance,1011.0,Festival Pier_diatance,256.0,17685.0,0.0,0.0,0.0,0.0,0.0,0.5645460135304662
"Tavistock Street, Covent Garden",335,51.51196803,-0.120718759,16.0,Charing Cross_diatance,523.0,Lincoln's Inn Fields West_distance,481.0,Embankment Pier_diatance,557.0,2977.0,0.0,0.0,0.0,0.0,0.0,0.7355187580309659
"Concert Hall Approach 2, South Bank",336,51.504942,-0.115533,11.0,Waterloo_diatance,261.0,Geraldine Mary Harmsworth Park North_diatance,990.0,Festival Pier_diatance,277.0,17685.0,0.0,0.0,0.0,0.0,0.0,0.5475983565026438
"Pembridge Villas, Notting Hill",337,51.51108452,-0.197524944,14.0,Paddington_diatance,1576.0,Kensington Gardens Black Lion Gate_diatance,682.0,Cadogan Pier_diatance,3810.0,17672.0,0.0,-3.013253297668575,0.0,0.0,-3.053928041138518,0.4182479944114431
"Wellington Street , Strand",338,51.51175646,-0.119643424,14.0,Charing Cross_diatance,530.0,Lincoln's Inn Fields West_distance,479.0,Embankment Pier_diatance,544.0,2977.0,0.0,0.0,0.0,0.0,0.0,0.7098507794914429
"Risinghill Street, Angel",339,51.5333196,-0.1117812,2.0,Kings Cross_diatance,803.0,Lincoln's Inn Fields West_distance,1980.0,Blackfriars Pier_diatance,2633.0,22228.0,0.0,0.0,0.0,0.0,0.0,0.11775603341605057
"Bank of England Museum, Bank",340,51.51444134,-0.087587447,18.0,Cannon Street_diatance,544.0,Lincoln's Inn Fields South_distance,1984.0,London Bridge City Pier_diatance,860.0,1021.0,0.0,0.0,0.0,0.0,0.0,0.24403038765232457
"Craven Street, Strand",341,51.50810309,-0.12602103,51.0,Charing Cross_diatance,213.0,St. James's Park Waterloo Place Gate_distance,455.0,Embankment Pier_diatance,348.0,1810.0,0.0,0.0,0.0,0.0,0.0,0.7179885226127223
"London Zoo Car Park, The Regent's Park",343,51.53692216,-0.150181444,83.0,Euston_diatance,1419.0,The Regent's Park St. Mark's Gate_distance,150.0,Embankment Pier_diatance,3882.0,10443.0,0.0,0.0,0.0,0.0,0.0,0.6357607032948733
"Goswell Road (City Uni), Finsbury",344,51.528246,-0.10102611,15.0,Kings Cross_diatance,1609.0,Lincoln's Inn Fields South_distance,1750.0,Blackfriars Pier_diatance,1960.0,20244.0,0.0,0.0,0.0,0.0,0.0,0.3157332579343283
"Flood Street, Chelsea",345,51.48802358,-0.166878535,32.0,Victoria_diatance,1802.0,Battersea Park Albert Gate_diatance,947.0,Cadogan Pier_diatance,578.0,20725.0,0.0,0.0,0.0,0.0,0.0,-0.3005384945997783
"Lower Marsh, Waterloo",347,51.50013942,-0.113936001,20.0,Waterloo_diatance,333.0,Geraldine Mary Harmsworth Park North_diatance,498.0,London Eye - Waterloo Pier_diatance,582.0,6252.0,0.0,0.0,0.0,0.0,0.0,0.4124367466297385
"Grosvenor Square, Mayfair",348,51.51217033,-0.150481272,19.0,Marylebone_diatance,1492.0,Hyde Park Park Lane_diatance,539.0,Embankment Pier_diatance,2098.0,9898.0,-7.144105853460165,0.0,-5.165663528018197,3.335019075012452,-5.241750257592373,0.3823313824037895
"St. George Street, Mayfair",349,51.51196,-0.142783033,11.0,Charing Cross_diatance,1450.0,Green Park Devonshire Gates_diatance,714.0,Embankment Pier_diatance,1584.0,2938.0,0.0,0.0,0.0,0.0,0.0,0.126649940753407
"Queen's Gate, Kensington Gardens",350,51.5017154373867,-0.1798541843891,228.0,Paddington_diatance,1723.0,Kensington Gardens Queen Gate_diatance,28.0,Cadogan Pier_diatance,2298.0,4109.0,0.0,0.0,0.0,2.6560228993276596,-3.5969104286048745,0.4627057681712259
"Macclesfield Rd, St Lukes",351,51.529423,-0.097122,23.0,Liverpool Street_diatance,1608.0,Lincoln's Inn Fields South_distance,2022.0,Blackfriars Pier_diatance,2107.0,22930.0,0.0,0.0,0.0,0.0,0.0,0.38284944399039
"Vauxhall Street, Vauxhall",352,51.486965,-0.116625,9.0,Vauxhall_diatance,450.0,Geraldine Mary Harmsworth Park West_diatance,1040.0,St. George Wharf_diatance,740.0,11597.0,0.0,0.0,0.0,0.0,0.0,0.14711834559700088
"Greycoat Street , Westminster",353,51.49459148,-0.134234258,11.0,Victoria_diatance,765.0,St. James's Park Queen Anne's Gate_distance,704.0,Millbank Millennium Pier_diatance,731.0,15046.0,0.0,0.0,0.0,0.0,0.0,0.13550025334237709
"Northumberland Avenue, Strand",354,51.506767,-0.123702,46.0,Charing Cross_diatance,92.0,St. James's Park Waterloo Place Gate_distance,537.0,Embankment Pier_diatance,165.0,1810.0,0.0,0.0,0.0,0.0,0.0,0.7328791539312454
"Clapham Common Station, Clapham Common",355,51.461388,-0.13922146,0.0,Clapham Junction_diatance,2179.0,Battersea Park Rosery Gate_diatance,1980.0,Battersea Power Station Pier_diatance,2548.0,13133.0,0.0,0.0,0.0,0.0,0.0,0.28095524804866007
"South Kensington Station, South Kensington",356,51.494412,-0.173881,37.0,Victoria_diatance,2028.0,Hyde Park Alexandra Gate_diatance,832.0,Cadogan Pier_diatance,1389.0,8106.0,0.0,0.0,0.0,2.0627585822425476,0.0,0.4646024818212886
"Howland Street, Fitzrovia",357,51.520994,-0.139016,26.0,Euston_diatance,912.0,The Regent's Park St. Andrew's Gate_distance,681.0,Embankment Pier_diatance,1981.0,19918.0,0.0,0.0,0.0,0.0,0.0,0.012740370027614894
"High Holborn , Covent Garden",358,51.516226,-0.124826,15.0,Charing Cross_diatance,978.0,Lincoln's Inn Fields West_distance,476.0,Embankment Pier_diatance,1056.0,14797.0,0.0,0.0,0.0,0.0,0.0,0.658040993381618
"Butler Place, Westminster",359,51.49782999,-0.135440826,16.0,Victoria_diatance,662.0,St. James's Park Queen Anne's Gate_distance,361.0,Westminster Pier_diatance,956.0,3982.0,0.0,0.0,0.0,0.0,0.0,0.2731514816315637
"Howick Place, Westminster",360,51.49675303,-0.138733562,24.0,Victoria_diatance,420.0,St. James's Park Buckingham Gate_distance,416.0,Millbank Millennium Pier_diatance,1118.0,21065.0,0.0,0.0,0.0,0.0,0.0,0.38786615024863547
"Waterloo Station 2, Waterloo",361,51.50391973,-0.11342629,13.0,Waterloo_diatance,92.0,Geraldine Mary Harmsworth Park North_diatance,823.0,Festival Pier_diatance,457.0,6252.0,0.0,0.0,0.0,0.0,0.0,0.4019324707824172
"Royal College Street, Camden Town",362,51.536264,-0.133952,24.0,St Pancras_diatance,766.0,The Regent's Park Chester Gate_distance,1265.0,Embankment Pier_diatance,3371.0,26038.0,0.0,0.0,0.0,0.0,0.0,0.22026092917607262
"Lord's, St. John's Wood",363,51.5291212008901,-0.171185284853,9.0,Marylebone_diatance,877.0,The Regent's Park Hanover Gate_distance,391.0,Embankment Pier_diatance,4238.0,6376.0,0.0,0.0,0.0,0.0,0.0,0.25175624249917505
"Store Street, Bloomsbury",364,51.519572,-0.13214036,11.0,Euston_diatance,1028.0,Lincoln's Inn Fields West_distance,1061.0,Embankment Pier_diatance,1588.0,12381.0,0.0,0.0,0.0,0.0,0.0,0.2461788701245119
"City Road, Angel",365,51.530344,-0.100168,12.0,Kings Cross_diatance,1616.0,Lincoln's Inn Fields South_distance,1975.0,Blackfriars Pier_diatance,2194.0,20950.0,0.0,0.0,0.0,0.0,0.0,0.355749197395164
"Harrowby Street, Marylebone",367,51.5173721,-0.1642075,11.0,Marylebone_diatance,642.0,Hyde Park Marble Arch_diatance,698.0,Embankment Pier_diatance,3184.0,19577.0,0.0,2.1100686101783808,-3.372823797387676,0.0,-2.126012636844551,0.6740112113955056
"Harriet Street, Knightsbridge",368,51.50024195,-0.15934065,39.0,Victoria_diatance,1085.0,Hyde Park Albert Gate_diatance,265.0,Cadogan Pier_diatance,1996.0,9963.0,-2.4320303468221094,0.0,-3.7792018899053375,0.0,-2.7698576357978886,0.2943134838645857
"Paddington Green, Paddington",370,51.520205,-0.174593,16.0,Paddington_diatance,380.0,Hyde Park Victoria Gate_diatance,940.0,Embankment Pier_diatance,3968.0,17517.0,0.0,2.835324335952696,0.0,0.0,0.0,0.49961773768565215
"King Edward Walk, Waterloo",371,51.49775,-0.10988,2.0,Waterloo_diatance,638.0,Geraldine Mary Harmsworth Park North_diatance,112.0,London Eye - Waterloo Pier_diatance,968.0,9068.0,0.0,0.0,0.0,0.0,0.0,0.21210185061722217
"Sardinia Street, Holborn",372,51.515208,-0.117863,5.0,Charing Cross_diatance,931.0,Lincoln's Inn Fields West_distance,81.0,Festival Pier_diatance,913.0,5611.0,0.0,0.0,0.0,0.0,0.0,0.5486857697673203
"Prince Consort Road, Knightsbridge",373,51.49980661,-0.176415994,9.0,Paddington_diatance,1923.0,Kensington Gardens Albert Memorial Gate_diatance,222.0,Cadogan Pier_diatance,2011.0,4109.0,0.0,0.0,0.0,2.8692241689475764,-2.906671450243427,0.5027961714629362
"Waterloo Station 1, Waterloo",374,51.50402794,-0.11386436,37.0,Waterloo_diatance,113.0,Geraldine Mary Harmsworth Park North_diatance,847.0,Festival Pier_diatance,428.0,6252.0,0.0,0.0,0.0,0.0,0.0,0.43819005796293875
"Kensington Town Hall, Kensington",375,51.50194596,-0.194392952,14.0,Paddington_diatance,2075.0,Holland Park Duchess of Bedford_diatance,447.0,Cadogan Pier_diatance,2878.0,11513.0,0.0,-3.0141530506744147,0.0,-2.6027963761328805,0.0,0.3995245340050167
"Millbank Tower, Pimlico",376,51.49188409,-0.125674815,13.0,Vauxhall_diatance,693.0,St. James's Park Storey's Gate_distance,1104.0,Millbank Millennium Pier_diatance,69.0,15964.0,0.0,0.0,0.0,0.0,0.0,0.5024555820512215
"Waterloo Bridge, South Bank",377,51.50535447,-0.113656543,12.0,Waterloo_diatance,253.0,Geraldine Mary Harmsworth Park North_diatance,977.0,Festival Pier_diatance,340.0,17685.0,0.0,0.0,0.0,0.0,0.0,0.42014411954483427
"Natural History Museum, South Kensington",378,51.49559291,-0.179077626,17.0,Victoria_diatance,2376.0,Kensington Gardens Queen Gate_diatance,678.0,Cadogan Pier_diatance,1669.0,8081.0,0.0,0.0,0.0,2.79483971077203,0.0,0.4375853699303824
"Turquoise Island, Notting Hill",379,51.51431171,-0.200838199,23.0,Paddington_diatance,1685.0,Kensington Gardens Black Lion Gate_diatance,1016.0,Cadogan Pier_diatance,4236.0,20331.0,0.0,-2.323688814520334,0.0,2.176063502583967,-2.232060498172598,0.4000210409747022
"Stanhope Gate, Mayfair",380,51.50686435,-0.150666888,12.0,Victoria_diatance,1211.0,Hyde Park Queen Elizabeth Gate_diatance,327.0,Westminster Pier_diatance,1989.0,9898.0,-9.250968333117553,-3.7596106755464715,-5.155151840170825,6.969039213697265,-7.084921620181054,0.316904360445714
"Charlotte Street, Fitzrovia",381,51.51953043,-0.13577731,9.0,Euston_diatance,1023.0,The Regent's Park St. Andrew's Gate_distance,955.0,Embankment Pier_diatance,1717.0,19918.0,0.0,0.0,0.0,0.0,0.0,0.15330778960919195
"Farm Street, Mayfair",382,51.50935171,-0.14744969,8.0,Victoria_diatance,1430.0,Green Park Devonshire Gates_diatance,455.0,Embankment Pier_diatance,1826.0,4530.0,-7.1372805228725165,-2.8095321618119664,-3.0590662508656328,5.4319679977452955,-5.043628148977162,0.34065039817686565
"Frith Street, Soho",383,51.51310333,-0.13121385,13.0,Charing Cross_diatance,839.0,St. James's Park Waterloo Place Gate_distance,834.0,Embankment Pier_diatance,965.0,10317.0,0.0,0.0,0.0,0.0,0.0,0.5336703819639612
"Marloes Road, Kensington",384,51.496481,-0.192404,10.0,Paddington_diatance,2531.0,Kensington Gardens Palace Gate_diatance,822.0,Cadogan Pier_diatance,2356.0,14743.0,0.0,0.0,0.0,0.0,0.0,0.344611027289857
"Moor Street, Soho",386,51.51352755,-0.130110822,23.0,Charing Cross_diatance,827.0,Lincoln's Inn Fields West_distance,883.0,Embankment Pier_diatance,948.0,10317.0,0.0,0.0,0.0,0.0,0.0,0.5616129562754604
"Fire Brigade Pier, Vauxhall",387,51.49369988,-0.121394101,28.0,Vauxhall_diatance,874.0,Geraldine Mary Harmsworth Park West_diatance,766.0,Millbank Millennium Pier_diatance,313.0,12443.0,0.0,0.0,0.0,0.0,0.0,0.5229361776268654
"Southampton Street, Strand",388,51.51070161,-0.121723604,16.0,Charing Cross_diatance,369.0,Lincoln's Inn Fields West_distance,638.0,Embankment Pier_diatance,415.0,2977.0,0.0,0.0,0.0,0.0,0.0,0.7521838377904961
"Upper Grosvenor Street, Mayfair",389,51.51013066,-0.155757901,9.0,Marylebone_diatance,1527.0,Hyde Park Park Lane_diatance,178.0,Embankment Pier_diatance,2408.0,9898.0,-9.539475207282141,0.0,-7.645825233785638,4.32489084041027,-6.881544506118081,0.3591984267733942
"Buxton Street 1, Shoreditch",390,51.521776,-0.068856,14.0,Liverpool Street_diatance,973.0,Victoria Park Bonner Gate_diatance,1916.0,Tower Millennium Pier_diatance,1756.0,14523.0,0.0,0.0,0.0,0.0,0.0,0.12538941065265627
"Clifford Street, Mayfair",391,51.51066202,-0.142345694,0.0,Charing Cross_diatance,1378.0,Green Park Devonshire Gates_diatance,580.0,Embankment Pier_diatance,1511.0,2938.0,-2.1886352854036213,0.0,0.0,0.0,0.0,0.22201476956377056
"Imperial College, Knightsbridge",392,51.49942855,-0.179702476,33.0,Paddington_diatance,1975.0,Kensington Gardens Queen Gate_diatance,250.0,Cadogan Pier_diatance,2063.0,4109.0,0.0,0.0,0.0,3.051543531494343,-2.699961371102254,0.46838114950821497
"Snow Hill, Farringdon",393,51.51733427,-0.103604248,7.0,Blackfriars_diatance,639.0,Lincoln's Inn Fields South_distance,891.0,Blackfriars Pier_diatance,769.0,2733.0,0.0,0.0,0.0,0.0,0.0,0.31968524699355627
"Aberdeen Place, St. John's Wood",394,51.524826,-0.176268,17.0,Paddington_diatance,860.0,The Regent's Park Hanover Gate_distance,836.0,Embankment Pier_diatance,4288.0,28154.0,0.0,2.034049043444323,0.0,0.0,0.0,0.42650730924254965
"Cadogan Gardens, Chelsea",395,51.492462,-0.159919,15.0,Victoria_diatance,1143.0,Hyde Park Albert Gate_diatance,1128.0,Cadogan Pier_diatance,1160.0,12691.0,0.0,0.0,-4.160325792020781,2.0324339127198265,0.0,0.28535102813225527
"Shouldham Street, Marylebone",396,51.51809,-0.163609,13.0,Marylebone_diatance,559.0,Hyde Park Marble Arch_diatance,746.0,Embankment Pier_diatance,3176.0,20291.0,0.0,0.0,-3.280432528796652,0.0,-1.9789430419310305,0.6756017009838846
"Devonshire Terrace, Bayswater",397,51.51348,-0.17977,48.0,Paddington_diatance,449.0,Kensington Gardens Marlborough Gate_diatance,350.0,Cadogan Pier_diatance,3532.0,38188.0,-4.3052608346690695,2.336113501004615,-5.852436192904033,4.0342364092428,-4.160509424501905,0.49457350826456153
"Holland Park, Kensington",398,51.502319,-0.200742,65.0,Paddington_diatance,2329.0,Holland Park Duchess of Bedford_diatance,13.0,Cadogan Pier_diatance,3218.0,5099.0,0.0,0.0,0.0,0.0,0.0,0.0067275207838203765
"Brick Lane Market, Shoreditch",399,51.52261762,-0.071653961,23.0,Liverpool Street_diatance,844.0,Victoria Park Bonner Gate_diatance,2001.0,Tower Millennium Pier_diatance,1778.0,14523.0,0.0,0.0,0.0,0.0,0.0,0.11196778716956415
"George Street, Marylebone",400,51.517703,-0.154106,19.0,Marylebone_diatance,860.0,Hyde Park Marble Arch_diatance,697.0,Embankment Pier_diatance,2562.0,7737.0,-3.832454447910618,0.0,-3.5077660880472465,2.5473494383216133,-2.366735409192459,0.530108157519135
"Columbia Road, Shoreditch",401,51.528187,-0.075375,25.0,Liverpool Street_diatance,1168.0,Victoria Park St Agnes Gate_diatance,1903.0,Tower Millennium Pier_diatance,2338.0,21972.0,0.0,0.0,0.0,0.0,0.0,0.044463421738467825
"Penfold Street, Marylebone",402,51.52289229,-0.171681991,6.0,Marylebone_diatance,601.0,The Regent's Park Hanover Gate_distance,741.0,Embankment Pier_diatance,3908.0,29064.0,0.0,0.0,0.0,0.0,0.0,0.43488424260113323
"George Place Mews, Marylebone",403,51.51689296,-0.158249929,11.0,Marylebone_diatance,764.0,Hyde Park Marble Arch_diatance,531.0,Embankment Pier_diatance,2782.0,13849.0,-3.9241810550542633,0.0,-4.037264328930613,2.2093070528144527,-2.565961569385524,0.5586689808160088
"Palace Gate, Kensington Gardens",404,51.50204238,-0.184400221,294.0,Paddington_diatance,1753.0,Kensington Gardens Palace Gate_diatance,20.0,Cadogan Pier_diatance,2474.0,7318.0,0.0,0.0,0.0,0.0,-2.6798512522559483,0.4220238324380912
"Gloucester Road Station, South Kensington",405,51.49418566,-0.18267094,47.0,Paddington_diatance,2579.0,Kensington Gardens Queen Gate_diatance,846.0,Cadogan Pier_diatance,1693.0,11055.0,0.0,0.0,0.0,0.0,0.0,0.35471250304636376
"Sun Street, Liverpool Street",408,51.520009,-0.083935724,18.0,Liverpool Street_diatance,219.0,Lincoln's Inn Fields South_distance,2284.0,London Bridge City Pier_diatance,1455.0,6784.0,0.0,0.0,0.0,0.0,0.0,0.056029289506606225
"Strata, Elephant & Castle",409,51.493146,-0.099828,22.0,Waterloo East_diatance,1410.0,Geraldine Mary Harmsworth Park East_diatance,537.0,Millbank Millennium Pier_diatance,1728.0,46000.0,0.0,0.0,0.0,0.0,0.0,0.17269131356905273
"Edgware Road Station, Marylebone",410,51.519968,-0.169774,40.0,Marylebone_diatance,584.0,Hyde Park Victoria Gate_diatance,917.0,Embankment Pier_diatance,3650.0,19375.0,0.0,2.297157425951601,0.0,0.0,0.0,0.6263315097133584
"Rotherhithe Roundabout, Rotherhithe",411,51.499169,-0.055846029,37.0,Fenchurch Street_diatance,2065.0,Mile End Park Football Pitch_diatance,2596.0,Tower Bridge Quay_diatance,1438.0,13318.0,0.0,0.0,0.0,0.0,0.0,0.2521720248756747
"Cleaver Street, Kennington",412,51.488105,-0.110121,6.0,Vauxhall_diatance,918.0,Geraldine Mary Harmsworth Park West_diatance,831.0,Millbank Millennium Pier_diatance,1089.0,17983.0,0.0,0.0,0.0,0.0,0.0,0.15036263539432682
"Chelsea Bridge, Pimlico",419,51.485821,-0.149004,14.0,Victoria_diatance,1233.0,Battersea Park Sopwith Way_diatance,490.0,Battersea Power Station Pier_diatance,299.0,22133.0,0.0,0.0,0.0,0.0,0.0,-0.022222466851252513
"Southwark Station 1, Southwark",420,51.504043,-0.105312,16.0,Waterloo East_diatance,331.0,Geraldine Mary Harmsworth Park North_diatance,798.0,Bankside Pier_diatance,790.0,11382.0,0.0,0.0,0.0,0.0,0.0,0.1601692122755373
"Southwark Station 2, Southwark",421,51.504044,-0.104778,10.0,Waterloo East_diatance,368.0,Geraldine Mary Harmsworth Park North_diatance,809.0,Bankside Pier_diatance,762.0,11382.0,0.0,0.0,0.0,0.0,0.0,0.15428334634823013
"Eaton Square (South), Belgravia",423,51.49456127,-0.15393398,9.0,Victoria_diatance,672.0,Hyde Park White Horse Gate_diatance,907.0,Battersea Power Station Pier_diatance,1306.0,10254.0,0.0,0.0,-4.288209286040468,3.0360755685879277,0.0,0.2798943286241269
"Ebury Bridge, Pimlico",424,51.490491,-0.149186,13.0,Victoria_diatance,744.0,Battersea Park Sopwith Way_diatance,1009.0,Battersea Power Station Pier_diatance,764.0,13181.0,2.3148310427493497,2.2340207459054704,-1.9859894448046236,3.5184106336573406,0.0,0.26228698572093617
"Vincent Street, Pimlico",426,51.493072,-0.129925,16.0,Vauxhall_diatance,934.0,St. James's Park Queen Anne's Gate_distance,914.0,Millbank Millennium Pier_diatance,390.0,40866.0,0.0,0.0,0.0,0.0,0.0,0.41520559303285126
"Cheapside, Bank",427,51.51397065,-0.09294031,22.0,Cannon Street_diatance,447.0,Lincoln's Inn Fields South_distance,1619.0,Bankside Pier_diatance,637.0,1021.0,0.0,0.0,0.0,0.0,0.0,0.21495664016700153
"Exhibition Road, Knightsbridge",428,51.499917,-0.174554,60.0,Paddington_diatance,1918.0,Hyde Park Alexandra Gate_diatance,218.0,Cadogan Pier_diatance,1982.0,4109.0,0.0,0.0,0.0,2.3082734566487697,-2.681008952975989,0.51076827590076
"South Parade, Chelsea",430,51.48902,-0.17524,9.0,Victoria_diatance,2270.0,Battersea Park Albert Gate_diatance,1258.0,Cadogan Pier_diatance,922.0,10752.0,0.0,0.0,0.0,0.0,0.0,0.08672744650030102
"Crinan Street, King's Cross",431,51.534474,-0.122203,4.0,Kings Cross_diatance,243.0,The Regent's Park Chester Gate_distance,1808.0,Blackfriars Pier_diatance,3033.0,18269.0,0.0,0.0,0.0,0.0,0.0,0.1096261719671239
"Exhibition Road Museums 1, South Kensington",432,51.496468,-0.17379696,56.0,Victoria_diatance,2007.0,Hyde Park Alexandra Gate_diatance,604.0,Cadogan Pier_diatance,1601.0,8106.0,0.0,-1.9666455022386151,0.0,2.599287867723939,0.0,0.49357749414664237
"Wren Street, Holborn",433,51.524564,-0.116279,10.0,Kings Cross_diatance,998.0,Lincoln's Inn Fields West_distance,966.0,Blackfriars Pier_diatance,1879.0,23525.0,0.0,0.0,0.0,0.0,0.0,0.12964108040598776
"Kennington Station, Kennington",435,51.488852,-0.105593,23.0,Vauxhall_diatance,1242.0,Geraldine Mary Harmsworth Park East_diatance,799.0,Millbank Millennium Pier_diatance,1362.0,19750.0,0.0,0.0,0.0,0.0,0.0,0.1547341429085639
"Red Lion Street, Holborn",436,51.51824,-0.11655,18.0,Blackfriars_diatance,1193.0,Lincoln's Inn Fields West_distance,274.0,Festival Pier_diatance,1253.0,5611.0,0.0,0.0,0.0,0.0,0.0,0.3206607971698313
"Vauxhall Walk, Vauxhall",437,51.488124,-0.120903,34.0,Vauxhall_diatance,283.0,Geraldine Mary Harmsworth Park West_diatance,1086.0,St. George Wharf_diatance,484.0,11597.0,0.0,0.0,0.0,0.0,0.0,0.2548120548885935
"Killick Street, King's Cross",439,51.5338,-0.118677,7.0,Kings Cross_diatance,356.0,Lincoln's Inn Fields West_distance,1987.0,Blackfriars Pier_diatance,2855.0,12099.0,0.0,0.0,0.0,0.0,0.0,0.09039959766755265
"Kennington Oval, Oval",440,51.483145,-0.113134,12.0,Vauxhall_diatance,742.0,Geraldine Mary Harmsworth Park West_diatance,1392.0,St. George Wharf_diatance,1040.0,13236.0,0.0,0.0,0.0,0.0,0.0,0.07823612222453678
"Sail Street, Vauxhall",441,51.495656,-0.114605,14.0,Waterloo_diatance,833.0,Geraldine Mary Harmsworth Park West_diatance,267.0,Millbank Millennium Pier_diatance,821.0,17675.0,0.0,0.0,0.0,0.0,0.0,0.3259666774172383
"Walmer Road, Avondale",442,51.510101,-0.211358,16.0,Paddington_diatance,2508.0,Holland Park Abbotsbury Gate_diatance,1119.0,Cadogan Pier_diatance,4347.0,13760.0,0.0,0.0,0.0,0.0,0.0,-0.6615307037950094
"Philpot Street, Whitechapel",443,51.515256,-0.058641,21.0,Fenchurch Street_diatance,1426.0,Mile End Park Football Pitch_diatance,1694.0,Tower Bridge Quay_diatance,1458.0,24194.0,0.0,0.0,0.0,0.0,0.0,0.16597324854327175
"Bethnal Green Garden, Bethnal Green",444,51.52568,-0.055312,22.0,Liverpool Street_diatance,2005.0,Victoria Park Bonner Gate_diatance,1000.0,Tower Bridge Quay_diatance,2528.0,31093.0,0.0,0.0,0.0,0.0,0.0,0.37533385116101486
"Cheshire Street, Bethnal Green",445,51.52388,-0.065076,12.0,Liverpool Street_diatance,1309.0,Victoria Park Bonner Gate_diatance,1566.0,Tower Bridge Quay_diatance,2075.0,14523.0,0.0,0.0,0.0,0.0,0.0,0.051816321792727264
"York Hall, Bethnal Green",446,51.528936,-0.055894,21.0,Liverpool Street_diatance,2141.0,Victoria Park Bonner Gate_diatance,720.0,Tower Bridge Quay_diatance,2830.0,18194.0,0.0,0.0,0.0,0.0,0.0,0.37341699946725787
"Jubilee Crescent, Cubitt Town",447,51.493381,-0.007542,8.0,Fenchurch Street_diatance,5292.0,Mile End Park Pavilion_diatance,2961.0,Greenwich Pier_diatance,1044.0,22503.0,0.0,0.0,0.0,0.0,0.0,-0.19441228663920457
"Fisherman's Walk West, Canary Wharf",448,51.50623,-0.02296,39.0,Fenchurch Street_diatance,3873.0,Mile End Park Pavilion_diatance,1203.0,Canary Wharf Pier_diatance,418.0,4318.0,0.0,0.0,0.0,0.0,0.0,-0.3600130590676256
"Shadwell Station, Shadwell",449,51.511088,-0.057159,22.0,Fenchurch Street_diatance,1463.0,Mile End Park Football Pitch_diatance,1756.0,Tower Bridge Quay_diatance,1267.0,16614.0,0.0,0.0,0.0,0.0,0.0,0.20140580989963242
"Jubilee Street, Stepney",450,51.515975,-0.053177,17.0,Fenchurch Street_diatance,1811.0,Mile End Park Football Pitch_diatance,1308.0,Tower Bridge Quay_diatance,1794.0,22207.0,0.0,0.0,0.0,0.0,0.0,0.19111508099613056
"Hermitage Court, Wapping",451,51.504719,-0.063531,26.0,Fenchurch Street_diatance,1264.0,Mile End Park Football Pitch_diatance,2512.0,Tower Bridge Quay_diatance,705.0,13767.0,0.0,0.0,0.0,0.0,0.0,0.29006669878259367
"St. Katharine's Way, Tower",452,51.505697,-0.070542,43.0,Fenchurch Street_diatance,831.0,Geraldine Mary Harmsworth Park East_diatance,2682.0,Tower Bridge Quay_diatance,208.0,7364.0,0.0,0.0,0.0,0.0,0.0,0.29791628436546036
"Garnet Street, Shadwell",453,51.508447,-0.055167,13.0,Fenchurch Street_diatance,1634.0,Mile End Park Football Pitch_diatance,1801.0,Tower Bridge Quay_diatance,1299.0,17201.0,0.0,0.0,0.0,0.0,0.0,0.1978639937990856
"Napier Avenue, Millwall",454,51.487679,-0.021582,32.0,Fenchurch Street_diatance,4730.0,Mile End Park Pavilion_diatance,3226.0,Masthouse Terrace Pier_diatance,62.0,31597.0,0.0,0.0,0.0,0.0,0.0,0.22473772204839151
"East Ferry Road, Cubitt Town",455,51.49447,-0.014409,7.0,Fenchurch Street_diatance,4806.0,Mile End Park Pavilion_diatance,2637.0,Masthouse Terrace Pier_diatance,958.0,15821.0,0.0,0.0,0.0,0.0,0.0,-0.176512845393842
"Parkway, Camden Town",456,51.538071,-0.144664,20.0,Euston_diatance,1257.0,The Regent's Park St. Mark's Gate_distance,552.0,Embankment Pier_diatance,3816.0,12410.0,0.0,0.0,0.0,0.0,0.0,0.6056320947862484
"Castlehaven Road, Camden Town",457,51.542138,-0.145393,29.0,Euston_diatance,1673.0,The Regent's Park St. Mark's Gate_distance,784.0,Embankment Pier_diatance,4249.0,10028.0,0.0,0.0,0.0,0.0,0.0,0.583628882491261
"Wapping Lane, Wapping",458,51.504749,-0.057544,16.0,Fenchurch Street_diatance,1616.0,Mile End Park Football Pitch_diatance,2195.0,Tower Bridge Quay_diatance,1114.0,20699.0,0.0,0.0,0.0,0.0,0.0,0.2508215822916575
"Gunmakers Lane, Old Ford",459,51.535179,-0.03338,54.0,Stratford International_diatance,2014.0,Victoria Park Gunmaker's Gate_distance,119.0,Canary Wharf Pier_diatance,3349.0,21816.0,0.0,0.0,0.0,0.0,0.0,0.11350388855512195
"Burdett Road, Mile End",460,51.516196,-0.029138,18.0,Stratford_diatance,3338.0,Mile End Park Pavilion_diatance,20.0,Canary Wharf Pier_diatance,1223.0,16999.0,0.0,0.0,0.0,0.0,0.0,-1.170649561633648
"Aston Street, Stepney",461,51.516,-0.038775,22.0,Fenchurch Street_diatance,2783.0,Mile End Park Football Pitch_diatance,392.0,Nelson Dock Pier_diatance,1369.0,20409.0,0.0,0.0,0.0,0.0,0.0,0.20911161712082096
"Bonny Street, Camden Town",462,51.541603,-0.138853,31.0,St Pancras_diatance,1437.0,The Regent's Park St. Mark's Gate_distance,1085.0,Embankment Pier_diatance,4036.0,16596.0,0.0,0.0,0.0,0.0,0.0,0.4611101290832922
"Thurtle Road, Haggerston",463,51.534776,-0.071881,17.0,Liverpool Street_diatance,1938.0,Victoria Park St Agnes Gate_diatance,1438.0,Tower Millennium Pier_diatance,3097.0,22367.0,0.0,0.0,0.0,0.0,0.0,0.06541818193303886
"St. Mary & St. Michael Church, Stepney",464,51.51417,-0.052099,13.0,Fenchurch Street_diatance,1839.0,Mile End Park Football Pitch_diatance,1294.0,Tower Bridge Quay_diatance,1740.0,28828.0,0.0,0.0,0.0,0.0,0.0,0.19510183887270796
"Pitfield Street North,Hoxton",465,51.53558,-0.08249,30.0,Liverpool Street_diatance,1900.0,Victoria Park St Agnes Gate_diatance,2162.0,Blackfriars Pier_diatance,3055.0,30630.0,0.0,0.0,0.0,0.0,0.0,0.274176486792118
"Whiston Road, Haggerston",466,51.534464,-0.076341,18.0,Liverpool Street_diatance,1816.0,Victoria Park St Agnes Gate_diatance,1748.0,Tower Millennium Pier_diatance,3029.0,17077.0,0.0,0.0,0.0,0.0,0.0,0.13991560492772437
"Southern Grove, Bow",467,51.523538,-0.030556,12.0,Stratford_diatance,2744.0,Mile End Park Solebay Street_diatance,405.0,Canary Wharf Pier_diatance,2043.0,10078.0,0.0,0.0,0.0,0.0,0.0,-1.7985515639225953
"Cantrell Road, Bow",468,51.521564,-0.022694,16.0,Stratford_diatance,2596.0,Mile End Park Stadium_diatance,624.0,Canary Wharf Pier_diatance,1868.0,15771.0,0.0,0.0,0.0,0.0,0.0,0.24092225033815695
"Lindfield Street, Poplar",469,51.513757,-0.020467,25.0,Stratford_diatance,3317.0,Mile End Park Pavilion_diatance,679.0,Canary Wharf Pier_diatance,1111.0,24063.0,0.0,0.0,0.0,0.0,0.0,-1.6983187248214817
"Mostyn Grove, Bow",470,51.530535,-0.025492,28.0,Stratford_diatance,1953.0,Mile End Park Art Pavilion_diatance,850.0,Canary Wharf Pier_diatance,2826.0,31188.0,3.892317729686204,-6.924564513906164,-4.386095095477752,-4.86677847945837,0.0,0.33169982599465114
"Hewison Street, Old Ford",471,51.533283,-0.028155,17.0,Stratford International_diatance,1858.0,Victoria Park Gunmaker's Gate_distance,527.0,Canary Wharf Pier_diatance,3123.0,27799.0,2.794464499005828,-6.366731911116432,-4.383128721127682,-4.322460347182707,0.0,0.3220772992772041
"Malmesbury Road, Bow",472,51.529452,-0.027616,24.0,Stratford_diatance,2143.0,Mile End Park Art Pavilion_diatance,669.0,Canary Wharf Pier_diatance,2698.0,15873.0,2.526708419784405,-4.704722168512788,-3.158560453187326,-3.097063438978291,0.0,0.30472825564288963
"Millharbour, Millwall",473,51.496137,-0.019355,9.0,Fenchurch Street_diatance,4419.0,Mile End Park Pavilion_diatance,2345.0,Greenland Pier_diatance,869.0,8154.0,0.0,0.0,0.0,0.0,0.0,-0.006573894519750618
"Gascoyne Road, Victoria Park",474,51.541515,-0.038557746,8.0,Stratford International_diatance,2097.0,Victoria Park Queen's Gate_distance,40.0,Canary Wharf Pier_diatance,4095.0,14145.0,0.0,0.0,0.0,0.0,0.0,-0.7344779776748013
"Lightermans Road, Millwall",475,51.499041,-0.020157,17.0,Fenchurch Street_diatance,4252.0,Mile End Park Pavilion_diatance,2020.0,Canary Wharf Pier_diatance,908.0,23256.0,0.0,0.0,0.0,0.0,0.0,-0.07025791791158804
"Stebondale Street, Cubitt Town",476,51.489096,-0.009205,15.0,Fenchurch Street_diatance,5388.0,Mile End Park Pavilion_diatance,3330.0,Greenwich Pier_diatance,560.0,5590.0,0.0,0.0,0.0,0.0,0.0,-0.19989174840096144
